- city: München
  id: 1
  lat: 11.5654
  lon: 48.1394
  name: Karlsplatz (Stachus)
- city: München
  id: 2
  lat: 11.5777
  lon: 48.1364
  name: Marienplatz
- city: München
  id: 3
  lat: 11.5828
  lon: 48.1339
  name: Isartor
- city: München
  id: 4
  lat: 11.5939
  lon: 48.1286
  name: Rosenheimer Platz
- city: München
  id: 5
  lat: 11.6041
  lon: 48.1281
  name: Ostbahnhof
- city: München
  id: 6
  lat: 11.5611
  lon: 48.1403
  name: Hauptbahnhof
- city: München
  id: 7
  lat: 11.5488
  lon: 48.1435
  name: Hackerbrücke
- city: München
  id: 8
  lat: 11.5346
  lon: 48.1427
  name: Donnersbergerbrücke
- city: München
  id: 9
  lat: 11.5032
  lon: 48.1431
  name: Laim
- city: München
  id: 10
  lat: 11.4606
  lon: 48.1488
  name: Pasing
- city: München
  id: 11
  lat: 11.5474
  lon: 48.1595
  name: Leonrodplatz
- city: München
  id: 12
  lat: 11.5538
  lon: 48.1543
  name: Hochschule München (Lothstr.)
- city: München
  id: 13
  lat: 11.5581
  lon: 48.1506
  name: Sandstraße
- city: München
  id: 15
  lat: 11.5596
  lon: 48.1448
  name: Karlstraße
- city: München
  id: 16
  lat: 11.5683
  lon: 48.1409
  name: Lenbachplatz
- city: München
  id: 17
  lat: 11.5786
  lon: 48.1394
  name: Nationaltheater
- city: München
  id: 18
  lat: 11.5831
  lon: 48.1385
  name: Kammerspiele
- city: München
  id: 19
  lat: 11.5881
  lon: 48.1376
  name: Maxmonument
- city: München
  id: 20
  lat: 11.5753
  lon: 48.1395
  name: Marienplatz (Theatinerstr.)
- city: München
  id: 20
  lat: 11.5753
  lon: 48.1395
  name: Theatinerstraße
- city: München
  id: 21
  lat: 11.596
  lon: 48.1361
  name: Maximilianeum
- city: München
  id: 22
  lat: 11.6048
  lon: 48.1356
  name: Flurstraße
- city: München
  id: 23
  lat: 11.6091
  lon: 48.1363
  name: Grillparzerstraße
- city: München
  id: 25
  lat: 11.5463
  lon: 48.1346
  name: Alter Messeplatz
- city: München
  id: 26
  lat: 11.5836
  lon: 48.1328
  name: Isartor/Zweibrückenstraße
- city: München
  id: 27
  lat: 11.5392
  lon: 48.1307
  name: Ridlerstraße
- city: München
  id: 29
  lat: 11.5369
  lon: 48.1517
  name: Landshuter Allee
- city: München
  id: 30
  lat: 11.5496
  lon: 48.1251
  name: Poccistraße
- city: München
  id: 31
  lat: 11.5195
  lon: 48.1435
  name: Hirschgarten
- city: München
  id: 32
  lat: 11.5533
  lon: 48.1554
  name: Hochschule München
- city: München
  id: 34
  lat: 11.5634
  lon: 48.1609
  name: Nordbad
- city: München
  id: 35
  lat: 11.5622
  lon: 48.156
  name: Görresstraße
- city: München
  id: 36
  lat: 11.5835
  lon: 48.1552
  name: Georgenstraße
- city: München
  id: 38
  lat: 11.5715
  lon: 48.1314
  name: Müllerstraße
- city: München
  id: 40
  lat: 11.5584
  lon: 48.1295
  name: Goetheplatz
- city: München
  id: 41
  lat: 11.5784
  lon: 48.1263
  name: Eduard-Schmid-Straße
- city: München
  id: 42
  lat: 11.5811
  lon: 48.1244
  name: Mariahilfplatz
- city: München
  id: 43
  lat: 11.575
  lon: 48.1603
  name: Kurfürstenplatz
- city: München
  id: 44
  lat: 11.5601
  lon: 48.1577
  name: Winzererstraße
- city: München
  id: 45
  lat: 11.5589
  lon: 48.1565
  name: Infanteriestraße Süd
- city: München
  id: 46
  lat: 11.6101
  lon: 48.1324
  name: Haidenauplatz
- city: München
  id: 47
  lat: 11.575
  lon: 48.1576
  name: Elisabethplatz
- city: München
  id: 48
  lat: 11.5754
  lon: 48.1549
  name: Nordendstraße
- city: München
  id: 49
  lat: 11.5733
  lon: 48.151
  name: Schellingstraße
- city: München
  id: 50
  lat: 11.5664
  lon: 48.1333
  name: Sendlinger Tor
- city: München
  id: 51
  lat: 11.5713
  lon: 48.148
  name: Pinakotheken
- city: München
  id: 52
  lat: 11.5696
  lon: 48.1454
  name: Karolinenplatz
- city: München
  id: 53
  lat: 11.5678
  lon: 48.1423
  name: Ottostraße
- city: München
  id: 54
  lat: 11.5359
  lon: 48.1463
  name: Donnersbergerstraße
- city: München
  id: 55
  lat: 11.5516
  lon: 48.139
  name: Hermann-Lingg-Straße
- city: München
  id: 56
  lat: 11.556
  lon: 48.1346
  name: Georg-Hirth-Platz
- city: München
  id: 57
  lat: 11.558
  lon: 48.1331
  name: Beethovenplatz
- city: München
  id: 58
  lat: 11.5584
  lon: 48.1268
  name: Kapuzinerplatz/ Arbeitsagentur
- city: München
  id: 59
  lat: 11.5619
  lon: 48.1251
  name: Kapuzinerstraße
- city: München
  id: 60
  lat: 11.5777
  lon: 48.1429
  name: Odeonsplatz
- city: München
  id: 61
  lat: 11.5671
  lon: 48.1234
  name: Baldeplatz
- city: München
  id: 62
  lat: 11.5714
  lon: 48.1211
  name: Claude-Lorrain-Straße
- city: München
  id: 63
  lat: 11.5753
  lon: 48.1195
  name: Humboldtstraße
- city: München
  id: 64
  lat: 11.5302
  lon: 48.1403
  name: Barthstraße
- city: München
  id: 65
  lat: 11.5344
  lon: 48.14
  name: Trappentreustraße
- city: München
  id: 66
  lat: 11.5413
  lon: 48.1396
  name: Schrenkstraße
- city: München
  id: 67
  lat: 11.5471
  lon: 48.1392
  name: Holzapfelstraße
- city: München
  id: 68
  lat: 11.5766
  lon: 48.1333
  name: Reichenbachplatz
- city: München
  id: 69
  lat: 11.5861
  lon: 48.1319
  name: Deutsches Museum
- city: München
  id: 70
  lat: 11.5805
  lon: 48.149
  name: Universität
- city: München
  id: 71
  lat: 11.5916
  lon: 48.1328
  name: Am Gasteig
- city: München
  id: 72
  lat: 11.5958
  lon: 48.1341
  name: Wiener Platz
- city: München
  id: 73
  lat: 11.6001
  lon: 48.1407
  name: Friedensengel/Villa Stuck
- city: München
  id: 74
  lat: 11.6013
  lon: 48.1432
  name: Holbeinstraße
- city: München
  id: 75
  lat: 11.6033
  lon: 48.1461
  name: Sternwartstraße
- city: München
  id: 76
  lat: 11.6089
  lon: 48.1509
  name: Herkomerplatz
- city: München
  id: 77
  lat: 11.6008
  lon: 48.1488
  name: Mauerkircherstraße
- city: München
  id: 78
  lat: 11.5966
  lon: 48.1501
  name: Tivolistraße
- city: München
  id: 79
  lat: 11.593
  lon: 48.1463
  name: Paradiesstraße
- city: München
  id: 80
  lat: 11.5849
  lon: 48.1571
  name: Giselastraße
- city: München
  id: 81
  lat: 11.5885
  lon: 48.1431
  name: Nationalmuseum/Haus d.Kunst
- city: München
  id: 82
  lat: 11.5305
  lon: 48.1355
  name: Astallerstraße
- city: München
  id: 83
  lat: 11.5538
  lon: 48.1233
  name: Tumblingerstraße
- city: München
  id: 84
  lat: 11.5867
  lon: 48.1352
  name: Mariannenplatz
- city: München
  id: 85
  lat: 11.534
  lon: 48.135
  name: Kazmairstraße
- city: München
  id: 86
  lat: 11.5743
  lon: 48.1484
  name: Maxvorstadt/Sammlg. Brandhorst
- city: München
  id: 87
  lat: 11.5374
  lon: 48.1349
  name: Bergmannstraße
- city: München
  id: 88
  lat: 11.5979
  lon: 48.1321
  name: Wörthstraße
- city: München
  id: 89
  lat: 11.5995
  lon: 48.1253
  name: Orleansstraße
- city: München
  id: 90
  lat: 11.5559
  lon: 48.1392
  name: Holzkirchner Bahnhof
- city: München
  id: 91
  lat: 11.6055
  lon: 48.1482
  name: Bundesfinanzhof
- city: München
  id: 92
  lat: 11.6013
  lon: 48.1242
  name: Kustermannpark
- city: München
  id: 93
  lat: 11.5794
  lon: 48.136
  name: Tal
- city: München
  id: 95
  lat: 11.5654
  lon: 48.1483
  name: Technische Universität
- city: München
  id: 96
  lat: 11.5707
  lon: 48.1253
  name: Klenzestraße
- city: München
  id: 97
  lat: 11.5764
  lon: 48.1478
  name: Amalienstraße
- city: München
  id: 100
  lat: 11.5589
  lon: 48.1412
  name: Hauptbahnhof (Gl. 5-36)
- city: München
  id: 101
  lat: 11.5447
  lon: 48.1274
  name: Hans-Fischer-Straße
- city: München
  id: 102
  lat: 11.5343
  lon: 48.1363
  name: Gollierplatz
- city: München
  id: 103
  lat: 11.5368
  lon: 48.1499
  name: Schlörstraße
- city: München
  id: 104
  lat: 11.5404
  lon: 48.1557
  name: Albrechtstraße
- city: München
  id: 105
  lat: 11.5435
  lon: 48.1573
  name: Fasaneriestraße
- city: München
  id: 106
  lat: 11.5537
  lon: 48.1615
  name: Infanteriestraße
- city: München
  id: 107
  lat: 11.5574
  lon: 48.1614
  name: Barbarastraße
- city: München
  id: 108
  lat: 11.5853
  lon: 48.1592
  name: Hohenzollernstraße
- city: München
  id: 109
  lat: 11.5806
  lon: 48.1599
  name: Friedrichstraße
- city: München
  id: 110
  lat: 11.564
  lon: 48.1462
  name: Königsplatz
- city: München
  id: 111
  lat: 11.589
  lon: 48.1249
  name: Regerplatz
- city: München
  id: 112
  lat: 11.5749
  lon: 48.1351
  name: Viktualienmarkt
- city: München
  id: 113
  lat: 11.574
  lon: 48.1332
  name: Blumenstraße
- city: München
  id: 114
  lat: 11.5752
  lon: 48.1322
  name: Gärtnerplatztheater
- city: München
  id: 115
  lat: 11.5784
  lon: 48.13
  name: Baaderstraße
- city: München
  id: 116
  lat: 11.583
  lon: 48.1267
  name: Schweigerstraße
- city: München
  id: 117
  lat: 11.5789
  lon: 48.1219
  name: Taubenstraße
- city: München
  id: 118
  lat: 11.605
  lon: 48.1331
  name: Kirchenstraße
- city: München
  id: 119
  lat: 11.5824
  lon: 48.131
  name: Boschbrücke
- city: München
  id: 120
  lat: 11.5643
  lon: 48.1512
  name: Theresienstraße
- city: München
  id: 121
  lat: 11.5937
  lon: 48.142
  name: Reitmorstraße/Sammlung Schack
- city: München
  id: 122
  lat: 11.5853
  lon: 48.1327
  name: Ludwigsbrücke
- city: München
  id: 123
  lat: 11.585
  lon: 48.1438
  name: Königinstraße
- city: München
  id: 124
  lat: 11.5788
  lon: 48.1453
  name: Von-der-Tann-Straße
- city: München
  id: 125
  lat: 11.576
  lon: 48.1503
  name: Türkenstraße
- city: München
  id: 126
  lat: 11.5707
  lon: 48.1518
  name: Arcisstraße
- city: München
  id: 127
  lat: 11.5681
  lon: 48.1525
  name: Luisenstraße
- city: München
  id: 128
  lat: 11.5659
  lon: 48.1531
  name: Augustenstraße
- city: München
  id: 129
  lat: 11.5616
  lon: 48.1207
  name: Roecklplatz
- city: München
  id: 130
  lat: 11.5663
  lon: 48.1548
  name: Josephsplatz
- city: München
  id: 131
  lat: 11.5726
  lon: 48.1353
  name: St.-Jakobs-Platz
- city: München
  id: 132
  lat: 11.5953
  lon: 48.1506
  name: Hirschauer Straße
- city: München
  id: 133
  lat: 11.6066
  lon: 48.1442
  name: Galileiplatz
- city: München
  id: 134
  lat: 11.6081
  lon: 48.1482
  name: Wehrlestraße
- city: München
  id: 135
  lat: 11.5934
  lon: 48.1528
  name: Chinesischer Turm
- city: München
  id: 136
  lat: 11.5887
  lon: 48.1566
  name: Thiemestraße
- city: München
  id: 137
  lat: 11.5991
  lon: 48.1528
  name: Am Tucherpark
- city: München
  id: 138
  lat: 11.5932
  lon: 48.1235
  name: Schwester-Eubulina-Platz
- city: München
  id: 139
  lat: 11.5962
  lon: 48.1236
  name: Auerfeldstraße
- city: München
  id: 140
  lat: 11.568
  lon: 48.1612
  name: Hohenzollernplatz
- city: München
  id: 141
  lat: 11.5658
  lon: 48.1308
  name: Stephansplatz
- city: München
  id: 142
  lat: 11.5621
  lon: 48.1294
  name: Maistraße
- city: München
  id: 143
  lat: 11.5638
  lon: 48.1275
  name: Waltherstraße
- city: München
  id: 144
  lat: 11.5591
  lon: 48.1225
  name: Zenettistraße
- city: München
  id: 145
  lat: 11.5499
  lon: 48.1424
  name: ZOB
- city: München
  id: 146
  lat: 11.5573
  lon: 48.1214
  name: Ehrengutstraße
- city: München
  id: 150
  lat: 11.5762
  lon: 48.1279
  name: Fraunhoferstraße
- city: München
  id: 151
  lat: 11.5793
  lon: 48.1293
  name: Corneliusbrücke
- city: München
  id: 152
  lat: 11.5903
  lon: 48.1224
  name: Aurbacherstraße
- city: München
  id: 153
  lat: 11.5375
  lon: 48.1597
  name: Dom-Pedro-Straße
- city: München
  id: 156
  lat: 11.5616
  lon: 48.1424
  name: Elisenstraße
- city: München
  id: 157
  lat: 11.5024
  lon: 48.1463
  name: Nymphenburg Süd
- city: München
  id: 158
  lat: 11.5301
  lon: 48.1592
  name: Hubertusbrunnen
- city: München
  id: 159
  lat: 11.5766
  lon: 48.1206
  name: Kolumbusplatz (Nord)
- city: München
  id: 160
  lat: 11.5765
  lon: 48.1191
  name: Kolumbusplatz
- city: München
  id: 161
  lat: 11.599
  lon: 48.1214
  name: St.-Cajetan-Straße
- city: München
  id: 162
  lat: 11.5758
  lon: 48.1192
  name: Kolumbusplatz/Humboldtstraße
- city: München
  id: 163
  lat: 11.5375
  lon: 48.1563
  name: Volkartstraße Ost
- city: München
  id: 164
  lat: 11.5374
  lon: 48.1626
  name: Hanebergstraße
- city: München
  id: 166
  lat: 11.5737
  lon: 48.1356
  name: Marienplatz (Rindermarkt)
- city: München
  id: 166
  lat: 11.5737
  lon: 48.1356
  name: Marienplatz Süd
- city: München
  id: 170
  lat: 11.5588
  lon: 48.1471
  name: Stiglmaierplatz
- city: München
  id: 180
  lat: 11.5446
  lon: 48.1503
  name: Maillingerstraße
- city: München
  id: 185
  lat: 11.5505
  lon: 48.1524
  name: Gaiglstraße
- city: München
  id: 190
  lat: 11.5335
  lon: 48.153
  name: Rotkreuzplatz
- city: München
  id: 197
  lat: 11.5755
  lon: 48.1454
  name: Oskar-von-Miller-Ring
- city: München
  id: 200
  lat: 11.5284
  lon: 48.1693
  name: Westfriedhof
- city: München
  id: 201
  lat: 11.5275
  lon: 48.1665
  name: Dantebad
- city: München
  id: 202
  lat: 11.529
  lon: 48.1642
  name: Klugstraße
- city: München
  id: 203
  lat: 11.5304
  lon: 48.1597
  name: St.-Galler-Straße
- city: München
  id: 204
  lat: 11.5314
  lon: 48.1564
  name: Neuhausen
- city: München
  id: 205
  lat: 11.5326
  lon: 48.1551
  name: Volkartstraße
- city: München
  id: 206
  lat: 11.5224
  lon: 48.1686
  name: Sadelerstraße
- city: München
  id: 207
  lat: 11.5279
  lon: 48.1519
  name: Winthirplatz
- city: München
  id: 209
  lat: 11.5237
  lon: 48.1514
  name: Dankwartstraße
- city: München
  id: 210
  lat: 11.4932
  lon: 48.1656
  name: Amalienburgstraße
- city: München
  id: 211
  lat: 11.5026
  lon: 48.1645
  name: Botanischer Garten
- city: München
  id: 212
  lat: 11.507
  lon: 48.1637
  name: Maria-Ward-Straße
- city: München
  id: 213
  lat: 11.5113
  lon: 48.1614
  name: Dall'Armistraße
- city: München
  id: 214
  lat: 11.5115
  lon: 48.1585
  name: Schloss Nymphenburg
- city: München
  id: 215
  lat: 11.5116
  lon: 48.1556
  name: Romanplatz
- city: München
  id: 216
  lat: 11.5203
  lon: 48.1501
  name: Steubenplatz
- city: München
  id: 217
  lat: 11.5244
  lon: 48.149
  name: Briefzentrum
- city: München
  id: 218
  lat: 11.5296
  lon: 48.1473
  name: Burghausener Straße
- city: München
  id: 219
  lat: 11.5154
  lon: 48.1522
  name: Kriemhildenstraße
- city: München
  id: 220
  lat: 11.5266
  lon: 48.1566
  name: Renatastraße
- city: München
  id: 221
  lat: 11.5199
  lon: 48.156
  name: Hubertusstraße
- city: München
  id: 222
  lat: 11.5419
  lon: 48.145
  name: Marsstraße
- city: München
  id: 223
  lat: 11.5454
  lon: 48.1442
  name: Deroystraße
- city: München
  id: 224
  lat: 11.5145
  lon: 48.1682
  name: Mettenstraße
- city: München
  id: 225
  lat: 11.5033
  lon: 48.1493
  name: Herthastraße
- city: München
  id: 226
  lat: 11.5042
  lon: 48.1513
  name: Kemnatenstraße
- city: München
  id: 227
  lat: 11.5081
  lon: 48.1529
  name: Hirschgartenallee
- city: München
  id: 228
  lat: 11.5107
  lon: 48.17
  name: Nederlinger Straße
- city: München
  id: 229
  lat: 11.507
  lon: 48.1761
  name: Netzerstraße
- city: München
  id: 230
  lat: 11.5045
  lon: 48.1727
  name: Skagerrakstraße
- city: München
  id: 231
  lat: 11.506
  lon: 48.1771
  name: Baubergerstraße
- city: München
  id: 232
  lat: 11.5544
  lon: 48.1424
  name: Hopfenstraße
- city: München
  id: 233
  lat: 11.5151
  lon: 48.1734
  name: Amphionpark
- city: München
  id: 234
  lat: 11.5022
  lon: 48.1725
  name: Schragenhofstraße
- city: München
  id: 235
  lat: 11.486
  lon: 48.1638
  name: Lustheimstraße
- city: München
  id: 236
  lat: 11.5095
  lon: 48.1672
  name: In den Kirschen
- city: München
  id: 237
  lat: 11.5071
  lon: 48.1792
  name: Bunzlauer Platz
- city: München
  id: 238
  lat: 11.5033
  lon: 48.1474
  name: Winfriedstraße
- city: München
  id: 239
  lat: 11.5089
  lon: 48.1707
  name: Nederlinger Straße (West)
- city: München
  id: 240
  lat: 11.5522
  lon: 48.1357
  name: Theresienwiese
- city: München
  id: 250
  lat: 11.5397
  lon: 48.1335
  name: Schwanthalerhöhe
- city: München
  id: 251
  lat: 11.546
  lon: 48.1326
  name: Theresienhöhe
- city: München
  id: 260
  lat: 11.5227
  lon: 48.1344
  name: Westendstraße
- city: München
  id: 270
  lat: 11.5114
  lon: 48.1351
  name: Friedenheimer Straße
- city: München
  id: 280
  lat: 11.503
  lon: 48.1355
  name: Laimer Platz
- city: München
  id: 285
  lat: 11.5306
  lon: 48.1712
  name: Stadtwerke München
- city: München
  id: 290
  lat: 11.546
  lon: 48.1715
  name: Olympiasee
- city: München
  id: 291
  lat: 11.5376
  lon: 48.1694
  name: Sapporobogen
- city: München
  id: 292
  lat: 11.5705
  lon: 48.1675
  name: Angererstraße
- city: München
  id: 293
  lat: 11.557
  lon: 48.164
  name: Georg-Birk-Straße
- city: München
  id: 294
  lat: 11.5562
  lon: 48.165
  name: Ackermannbogen
- city: München
  id: 295
  lat: 11.5519
  lon: 48.1623
  name: Olympiapark Süd
- city: München
  id: 296
  lat: 11.5594
  lon: 48.1686
  name: Deidesheimer Straße
- city: München
  id: 299
  lat: 11.5
  lon: 48.1802
  name: Margarete-Steiff-Straße
- city: München
  id: 300
  lat: 11.5074
  lon: 48.1804
  name: Moosach
- city: München
  id: 301
  lat: 11.5115
  lon: 48.1811
  name: Pelkovenstraße
- city: München
  id: 302
  lat: 11.5148
  lon: 48.1793
  name: Hugo-Troendle-Straße
- city: München
  id: 303
  lat: 11.522
  lon: 48.1758
  name: Wintrichring
- city: München
  id: 304
  lat: 11.5282
  lon: 48.1725
  name: Hanauer Straße
- city: München
  id: 305
  lat: 11.533
  lon: 48.1697
  name: Borstei
- city: München
  id: 306
  lat: 11.5379
  lon: 48.1659
  name: Olympiapark West
- city: München
  id: 307
  lat: 11.5422
  lon: 48.1629
  name: Heideckstraße
- city: München
  id: 307
  lat: 11.5422
  lon: 48.1629
  name: Goethe-Institut
- city: München
  id: 308
  lat: 11.5649
  lon: 48.1723
  name: Gartenstraße
- city: München
  id: 309
  lat: 11.5649
  lon: 48.1679
  name: Ackermannstraße
- city: München
  id: 310
  lat: 11.5245
  lon: 48.1969
  name: Fasanerie
- city: München
  id: 311
  lat: 11.5642
  lon: 48.1635
  name: Herzogstraße
- city: München
  id: 312
  lat: 11.5291
  lon: 48.1764
  name: Georg-Brauchle-Ring
- city: München
  id: 313
  lat: 11.5287
  lon: 48.1873
  name: Ehrenbreitsteiner Straße
- city: München
  id: 314
  lat: 11.533
  lon: 48.1847
  name: Riesstraße
- city: München
  id: 316
  lat: 11.5212
  lon: 48.1822
  name: Bingener Straße
- city: München
  id: 318
  lat: 11.5314
  lon: 48.184
  name: Olympia-Einkaufszentrum West
- city: München
  id: 319
  lat: 11.5368
  lon: 48.1832
  name: Olympia-Einkaufszentrum Ost
- city: München
  id: 320
  lat: 11.5403
  lon: 48.2139
  name: Feldmoching
- city: München
  id: 321
  lat: 11.5368
  lon: 48.1798
  name: Olympia-Pressestadt
- city: München
  id: 322
  lat: 11.5336
  lon: 48.1871
  name: Lassallestraße
- city: München
  id: 323
  lat: 11.5418
  lon: 48.1863
  name: Olympiapark Nord
- city: München
  id: 324
  lat: 11.5517
  lon: 48.186
  name: Lerchenauer Straße
- city: München
  id: 325
  lat: 11.5598
  lon: 48.1761
  name: Olympiapark Eissportstadion
- city: München
  id: 326
  lat: 11.5669
  lon: 48.1813
  name: Curt-Mezger-Platz
- city: München
  id: 328
  lat: 11.5246
  lon: 48.1856
  name: Andernacher Straße
- city: München
  id: 329
  lat: 11.5622
  lon: 48.1868
  name: Anhalter Platz
- city: München
  id: 330
  lat: 11.5363
  lon: 48.1773
  name: Gärtnerstraße
- city: München
  id: 331
  lat: 11.5661
  lon: 48.1872
  name: Moosacher Straße
- city: München
  id: 332
  lat: 11.5321
  lon: 48.1822
  name: Olympia-Einkaufszentrum Süd
- city: München
  id: 333
  lat: 11.5317
  lon: 48.1807
  name: Dessauerstraße
- city: München
  id: 334
  lat: 11.5665
  lon: 48.1845
  name: Milbertshofener Platz
- city: München
  id: 335
  lat: 11.5639
  lon: 48.1794
  name: Schopenhauerstraße
- city: München
  id: 336
  lat: 11.5631
  lon: 48.1827
  name: Lüneburger Straße
- city: München
  id: 337
  lat: 11.5654
  lon: 48.1924
  name: Detmoldstraße
- city: München
  id: 338
  lat: 11.549
  lon: 48.1914
  name: Schittgablerstraße
- city: München
  id: 340
  lat: 11.5666
  lon: 48.1755
  name: Petuelring
- city: München
  id: 341
  lat: 11.5349
  lon: 48.1955
  name: Himmelschlüsselstraße
- city: München
  id: 342
  lat: 11.5356
  lon: 48.1979
  name: Lerchenauer See
- city: München
  id: 343
  lat: 11.5357
  lon: 48.1994
  name: Max-Wönner-Straße
- city: München
  id: 344
  lat: 11.5391
  lon: 48.2039
  name: Franz-Sperr-Weg
- city: München
  id: 345
  lat: 11.5304
  lon: 48.1786
  name: Gneisenaustraße
- city: München
  id: 346
  lat: 11.5449
  lon: 48.2148
  name: Paidarstraße
- city: München
  id: 347
  lat: 11.5532
  lon: 48.2136
  name: Hasenbergl (Rainfarnstr.)
- city: München
  id: 349
  lat: 11.5532
  lon: 48.2166
  name: Stanigplatz
- city: München
  id: 350
  lat: 11.5567
  lon: 48.1787
  name: Olympiazentrum
- city: München
  id: 351
  lat: 11.5571
  lon: 48.2198
  name: Stösserstraße
- city: München
  id: 352
  lat: 11.5457
  lon: 48.1967
  name: Irisstraße
- city: München
  id: 353
  lat: 11.5431
  lon: 48.2006
  name: Robinienstraße
- city: München
  id: 354
  lat: 11.5502
  lon: 48.2002
  name: Goldlackplatz
- city: München
  id: 355
  lat: 11.5526
  lon: 48.2042
  name: Gundermannstraße
- city: München
  id: 356
  lat: 11.5525
  lon: 48.2083
  name: Hasenbergl Süd
- city: München
  id: 357
  lat: 11.5557
  lon: 48.2083
  name: Ittlingerstraße
- city: München
  id: 358
  lat: 11.5603
  lon: 48.2071
  name: Hasenberglstraße
- city: München
  id: 359
  lat: 11.5439
  lon: 48.2091
  name: Feldmochinger Anger
- city: München
  id: 360
  lat: 11.5295
  lon: 48.182
  name: Olympia-Einkaufszentrum
- city: München
  id: 362
  lat: 11.5561
  lon: 48.2104
  name: Ratkisstraße
- city: München
  id: 363
  lat: 11.5535
  lon: 48.2018
  name: Pulverturmstraße
- city: München
  id: 366
  lat: 11.5079
  lon: 48.1831
  name: Gröbenzeller Straße
- city: München
  id: 368
  lat: 11.5432
  lon: 48.2138
  name: Feldmoching Bahnhof Ost
- city: München
  id: 369
  lat: 11.5363
  lon: 48.1763
  name: Riesstraße Süd
- city: München
  id: 370
  lat: 11.5173
  lon: 48.1818
  name: Moosacher St.-Martins-Platz
- city: München
  id: 376
  lat: 11.5211
  lon: 48.186
  name: Merseburger Straße
- city: München
  id: 377
  lat: 11.5254
  lon: 48.182
  name: Claudiusplatz
- city: München
  id: 380
  lat: 11.5457
  lon: 48.1862
  name: Oberwiesenfeld
- city: München
  id: 381
  lat: 11.4971
  lon: 48.1993
  name: Ludwigsfeld (Campingplatz)
- city: München
  id: 382
  lat: 11.5064
  lon: 48.2018
  name: Am Blütenanger
- city: München
  id: 383
  lat: 11.5127
  lon: 48.2005
  name: Pappelallee
- city: München
  id: 384
  lat: 11.5185
  lon: 48.1992
  name: Sonnentaustraße
- city: München
  id: 385
  lat: 11.5224
  lon: 48.1989
  name: Kuckucksblumenstraße
- city: München
  id: 396
  lat: 11.5682
  lon: 48.2094
  name: Frauenmantelanger
- city: München
  id: 397
  lat: 11.5649
  lon: 48.1961
  name: Pulverturm
- city: München
  id: 398
  lat: 11.5737
  lon: 48.1703
  name: Scheidplatz Süd
- city: München
  id: 399
  lat: 11.559
  lon: 48.2002
  name: Olschewskibogen
- city: München
  id: 400
  lat: 11.5727
  lon: 48.1715
  name: Scheidplatz
- city: München
  id: 401
  lat: 11.5642
  lon: 48.2013
  name: Augustin-Rösch-Straße
- city: München
  id: 402
  lat: 11.5728
  lon: 48.205
  name: Röblingweg
- city: München
  id: 403
  lat: 11.5677
  lon: 48.2078
  name: Feuchtwangerstraße
- city: München
  id: 404
  lat: 11.5717
  lon: 48.21
  name: Trenkleweg
- city: München
  id: 405
  lat: 11.5632
  lon: 48.2088
  name: Weitlstraße
- city: München
  id: 406
  lat: 11.5772
  lon: 48.2034
  name: Dientzenhoferstraße
- city: München
  id: 407
  lat: 11.5787
  lon: 48.1842
  name: Abtstraße
- city: München
  id: 408
  lat: 11.5638
  lon: 48.2047
  name: Weyprechtstraße
- city: München
  id: 409
  lat: 11.5735
  lon: 48.2004
  name: Rathenaustraße
- city: München
  id: 410
  lat: 11.5785
  lon: 48.1669
  name: Bonner Platz
- city: München
  id: 413
  lat: 11.5769
  lon: 48.2012
  name: Siedlung am Hart
- city: München
  id: 414
  lat: 11.5784
  lon: 48.1962
  name: Sudetendeutsche Straße
- city: München
  id: 415
  lat: 11.584
  lon: 48.1926
  name: Euro-Industriepark West
- city: München
  id: 416
  lat: 11.5758
  lon: 48.1876
  name: Oberhofer Platz
- city: München
  id: 417
  lat: 11.5754
  lon: 48.1844
  name: Milbertshofener Straße
- city: München
  id: 418
  lat: 11.5818
  lon: 48.1753
  name: Mildred-Scheel-Bogen
- city: München
  id: 419
  lat: 11.5728
  lon: 48.1756
  name: Rümannstraße
- city: München
  id: 420
  lat: 11.6145
  lon: 48.1924
  name: Freimann
- city: München
  id: 421
  lat: 11.574
  lon: 48.1668
  name: Karl-Theodor-Straße
- city: München
  id: 422
  lat: 11.5746
  lon: 48.1635
  name: Clemensstraße
- city: München
  id: 423
  lat: 11.5849
  lon: 48.1817
  name: Griegstraße
- city: München
  id: 424
  lat: 11.5793
  lon: 48.1761
  name: Klopstockstraße
- city: München
  id: 425
  lat: 11.5846
  lon: 48.1843
  name: Domagkstraße West
- city: München
  id: 426
  lat: 11.5844
  lon: 48.1879
  name: Ingolstädter Straße
- city: München
  id: 427
  lat: 11.5946
  lon: 48.1877
  name: Funkkaserne West
- city: München
  id: 427
  lat: 11.5946
  lon: 48.1877
  name: Max-Bill-Straße
- city: München
  id: 428
  lat: 11.6025
  lon: 48.1869
  name: Lilienthalallee Süd
- city: München
  id: 428
  lat: 11.6025
  lon: 48.1869
  name: Funkkaserne
- city: München
  id: 429
  lat: 11.6066
  lon: 48.1864
  name: Joseph-Dollinger-Bogen
- city: München
  id: 429
  lat: 11.6066
  lon: 48.1864
  name: Autobahn Nord
- city: München
  id: 430
  lat: 11.6125
  lon: 48.2027
  name: Kieferngarten
- city: München
  id: 431
  lat: 11.5824
  lon: 48.1724
  name: Heckscherstraße
- city: München
  id: 432
  lat: 11.5854
  lon: 48.176
  name: Wilhelm-Hertz-Straße
- city: München
  id: 433
  lat: 11.5859
  lon: 48.1711
  name: Parzivalplatz
- city: München
  id: 434
  lat: 11.5862
  lon: 48.1673
  name: Potsdamer Straße
- city: München
  id: 435
  lat: 11.5774
  lon: 48.1701
  name: Kölner Platz
- city: München
  id: 436
  lat: 11.5871
  lon: 48.2104
  name: Neuherbergstraße
- city: München
  id: 437
  lat: 11.5862
  lon: 48.2057
  name: Anton-Will-Straße
- city: München
  id: 438
  lat: 11.5853
  lon: 48.201
  name: Heidemannstraße
- city: München
  id: 439
  lat: 11.5843
  lon: 48.1959
  name: Gundelkoferstraße
- city: München
  id: 440
  lat: 11.598
  lon: 48.2015
  name: Werner-Egk-Bogen
- city: München
  id: 441
  lat: 11.5895
  lon: 48.2013
  name: Paracelsusstraße
- city: München
  id: 442
  lat: 11.5934
  lon: 48.2017
  name: Grusonstraße
- city: München
  id: 443
  lat: 11.6026
  lon: 48.2009
  name: Euro-Industriepark Nord
- city: München
  id: 444
  lat: 11.6057
  lon: 48.2005
  name: Paul-Hindemith-Allee
- city: München
  id: 445
  lat: 11.6118
  lon: 48.2009
  name: Bernsteinweg
- city: München
  id: 446
  lat: 11.5753
  lon: 48.2107
  name: Rockefellerstraße
- city: München
  id: 447
  lat: 11.5821
  lon: 48.2108
  name: Rose-Pichler-Weg
- city: München
  id: 448
  lat: 11.5967
  lon: 48.183
  name: Alfred-Arndt-Straße
- city: München
  id: 448
  lat: 11.5967
  lon: 48.183
  name: Gertrud-Grunow-Straße
- city: München
  id: 449
  lat: 11.5942
  lon: 48.2058
  name: Untere Länge
- city: München
  id: 451
  lat: 11.5848
  lon: 48.1982
  name: Kollwitzstraße
- city: München
  id: 452
  lat: 11.5768
  lon: 48.1626
  name: Pündterplatz
- city: München
  id: 453
  lat: 11.5996
  lon: 48.2053
  name: Keilberthstraße
- city: München
  id: 454
  lat: 11.6031
  lon: 48.2022
  name: Gustav-Mahler-Straße
- city: München
  id: 455
  lat: 11.5823
  lon: 48.1625
  name: Bismarckstraße
- city: München
  id: 457
  lat: 11.6013
  lon: 48.1807
  name: Zaunweg
- city: München
  id: 458
  lat: 11.5852
  lon: 48.1782
  name: Freiligrathstraße
- city: München
  id: 459
  lat: 11.5864
  lon: 48.1727
  name: Schwabinger Tor
- city: München
  id: 464
  lat: 11.6089
  lon: 48.1951
  name: Edmund-Rumpler-Straße
- city: München
  id: 465
  lat: 11.6058
  lon: 48.1917
  name: Lindberghstraße
- city: München
  id: 466
  lat: 11.6013
  lon: 48.192
  name: Freimanner Hölzl
- city: München
  id: 470
  lat: 11.6166
  lon: 48.2116
  name: Fröttmaning
- city: München
  id: 500
  lat: 11.5863
  lon: 48.1619
  name: Münchner Freiheit
- city: München
  id: 501
  lat: 11.5883
  lon: 48.1761
  name: Am Münchner Tor
- city: München
  id: 502
  lat: 11.5904
  lon: 48.1842
  name: Domagkstraße
- city: München
  id: 503
  lat: 11.5912
  lon: 48.1875
  name: Schwabing Nord
- city: München
  id: 510
  lat: 11.5903
  lon: 48.1666
  name: Dietlindenstraße
- city: München
  id: 511
  lat: 11.5963
  lon: 48.1634
  name: Osterwaldstraße
- city: München
  id: 512
  lat: 11.6071
  lon: 48.1561
  name: Herzogpark
- city: München
  id: 513
  lat: 11.5756
  lon: 48.1775
  name: Barlachstraße
- city: München
  id: 518
  lat: 11.5992
  lon: 48.1696
  name: Amsterdamer Straße
- city: München
  id: 520
  lat: 11.5974
  lon: 48.1734
  name: Nordfriedhof
- city: München
  id: 530
  lat: 11.6039
  lon: 48.1795
  name: Alte Heide
- city: München
  id: 540
  lat: 11.608
  lon: 48.1833
  name: Studentenstadt
- city: München
  id: 541
  lat: 11.6155
  lon: 48.1901
  name: Situlistraße
- city: München
  id: 542
  lat: 11.621
  lon: 48.1916
  name: Floriansmühlstraße
- city: München
  id: 543
  lat: 11.6241
  lon: 48.1954
  name: Emmerigweg
- city: München
  id: 544
  lat: 11.6263
  lon: 48.199
  name: Josef-Wirth-Weg
- city: München
  id: 545
  lat: 11.6295
  lon: 48.2044
  name: Großlappen
- city: München
  id: 546
  lat: 11.6333
  lon: 48.2104
  name: Wallnerstraße
- city: München
  id: 547
  lat: 11.6355
  lon: 48.2146
  name: Fröttmaning Auensiedlung
- city: München
  id: 548
  lat: 11.6274
  lon: 48.1901
  name: Bayerischer Rundfunk
- city: München
  id: 550
  lat: 11.6022
  lon: 48.1502
  name: Kufsteiner Platz
- city: München
  id: 551
  lat: 11.6086
  lon: 48.1555
  name: Redwitzstraße
- city: München
  id: 552
  lat: 11.6119
  lon: 48.1588
  name: Gustav-Freytag-Straße
- city: München
  id: 553
  lat: 11.6152
  lon: 48.1626
  name: Gellertstraße
- city: München
  id: 554
  lat: 11.6184
  lon: 48.1664
  name: Rümelinstraße
- city: München
  id: 555
  lat: 11.6059
  lon: 48.1526
  name: Poschingerstraße
- city: München
  id: 556
  lat: 11.6351
  lon: 48.1699
  name: Regina-Ullmann-Straße
- city: München
  id: 557
  lat: 11.6434
  lon: 48.169
  name: Bichlhofweg
- city: München
  id: 560
  lat: 11.6154
  lon: 48.1429
  name: Böhmerwaldplatz
- city: München
  id: 570
  lat: 11.607
  lon: 48.1393
  name: Prinzregentenplatz
- city: München
  id: 580
  lat: 11.5979
  lon: 48.1357
  name: Max-Weber-Platz
- city: München
  id: 581
  lat: 11.5981
  lon: 48.1344
  name: Max-Weber-Platz (Johannispl.)
- city: München
  id: 590
  lat: 11.5886
  lon: 48.1396
  name: Lehel
- city: München
  id: 599
  lat: 11.6447
  lon: 48.1652
  name: Grimmeisenstraße
- city: München
  id: 600
  lat: 11.6305
  lon: 48.176
  name: St. Emmeram
- city: München
  id: 601
  lat: 11.6366
  lon: 48.1725
  name: Fritz-Meyer-Weg
- city: München
  id: 602
  lat: 11.6436
  lon: 48.1677
  name: Johanneskirchner Straße
- city: München
  id: 603
  lat: 11.6451
  lon: 48.1625
  name: Stegmühlstraße
- city: München
  id: 604
  lat: 11.6421
  lon: 48.1587
  name: Freischützstraße
- city: München
  id: 605
  lat: 11.6418
  lon: 48.1567
  name: Englschalkinger Straße
- city: München
  id: 606
  lat: 11.6413
  lon: 48.1532
  name: Memeler Straße
- city: München
  id: 607
  lat: 11.6407
  lon: 48.1506
  name: Zoppoter Straße
- city: München
  id: 608
  lat: 11.6405
  lon: 48.1482
  name: Posener Platz
- city: München
  id: 609
  lat: 11.6372
  lon: 48.1463
  name: Warthestraße
- city: München
  id: 610
  lat: 11.6283
  lon: 48.1474
  name: Vollmannstraße
- city: München
  id: 611
  lat: 11.6272
  lon: 48.1418
  name: Moselstraße
- city: München
  id: 612
  lat: 11.6203
  lon: 48.1373
  name: Vogelweideplatz
- city: München
  id: 612
  lat: 11.6203
  lon: 48.1373
  name: Steinhausen
- city: München
  id: 613
  lat: 11.6288
  lon: 48.1391
  name: Schwarzwaldstraße
- city: München
  id: 615
  lat: 11.6193
  lon: 48.158
  name: Odinpark
- city: München
  id: 616
  lat: 11.6254
  lon: 48.1481
  name: Daphnestraße
- city: München
  id: 617
  lat: 11.6221
  lon: 48.1609
  name: Priel
- city: München
  id: 618
  lat: 11.624
  lon: 48.1631
  name: Effnerstraße
- city: München
  id: 619
  lat: 11.6215
  lon: 48.1687
  name: Grüntal
- city: München
  id: 620
  lat: 11.6114
  lon: 48.1538
  name: Isarring
- city: München
  id: 621
  lat: 11.6139
  lon: 48.156
  name: Mahirstraße
- city: München
  id: 622
  lat: 11.6161
  lon: 48.1586
  name: Odinstraße
- city: München
  id: 623
  lat: 11.6192
  lon: 48.1619
  name: Wahnfriedallee
- city: München
  id: 624
  lat: 11.6218
  lon: 48.1642
  name: Lohengrinstraße
- city: München
  id: 625
  lat: 11.6234
  lon: 48.1662
  name: Bürgerpark Oberföhring
- city: München
  id: 626
  lat: 11.6267
  lon: 48.172
  name: Oberföhring Post
- city: München
  id: 627
  lat: 11.6286
  lon: 48.1736
  name: Bernheimerstraße
- city: München
  id: 628
  lat: 11.6244
  lon: 48.1698
  name: Muspillistraße
- city: München
  id: 629
  lat: 11.6243
  lon: 48.1908
  name: Sondermeierstraße
- city: München
  id: 630
  lat: 11.6206
  lon: 48.159
  name: Altenheim Effnerstraße
- city: München
  id: 632
  lat: 11.6292
  lon: 48.1625
  name: Prinz-Eugen-Park
- city: München
  id: 633
  lat: 11.629
  lon: 48.1587
  name: Schlösselgarten
- city: München
  id: 634
  lat: 11.6373
  lon: 48.1551
  name: Wilhelm-Dieß-Weg
- city: München
  id: 635
  lat: 11.6404
  lon: 48.1603
  name: Knappertsbuschstraße
- city: München
  id: 636
  lat: 11.6406
  lon: 48.1627
  name: Bruno-Walter-Ring
- city: München
  id: 637
  lat: 11.6309
  lon: 48.1668
  name: Taimerhofstraße
- city: München
  id: 638
  lat: 11.632
  lon: 48.1467
  name: Pühnstraße
- city: München
  id: 640
  lat: 11.6351
  lon: 48.1382
  name: Zamdorfer Straße
- city: München
  id: 641
  lat: 11.6363
  lon: 48.1403
  name: Friedrich-Eckart-Straße
- city: München
  id: 642
  lat: 11.6434
  lon: 48.14
  name: Zamdorf Siedlung
- city: München
  id: 643
  lat: 11.6476
  lon: 48.1399
  name: Süskindstraße
- city: München
  id: 645
  lat: 11.6395
  lon: 48.1387
  name: Kastenbauerstraße
- city: München
  id: 646
  lat: 11.6238
  lon: 48.136
  name: Riedenburger Straße
- city: München
  id: 647
  lat: 11.6473
  lon: 48.1387
  name: Kronstadter Straße
- city: München
  id: 648
  lat: 11.6496
  lon: 48.1423
  name: Zamilapark
- city: München
  id: 650
  lat: 11.6136
  lon: 48.1522
  name: Effnerplatz
- city: München
  id: 651
  lat: 11.6178
  lon: 48.1536
  name: Arabellastraße
- city: München
  id: 652
  lat: 11.6266
  lon: 48.1512
  name: Elektrastraße
- city: München
  id: 653
  lat: 11.6289
  lon: 48.1535
  name: Cosimabad
- city: München
  id: 654
  lat: 11.6224
  lon: 48.1485
  name: Denninger Straße
- city: München
  id: 655
  lat: 11.6232
  lon: 48.1537
  name: Arabellapark/Klinikum Bogenh.
- city: München
  id: 656
  lat: 11.6482
  lon: 48.1401
  name: Rappelhofstraße
- city: München
  id: 657
  lat: 11.6475
  lon: 48.1422
  name: Ruth-Schaumann-Straße
- city: München
  id: 662
  lat: 11.6149
  lon: 48.1369
  name: Einsteinstraße
- city: München
  id: 663
  lat: 11.6148
  lon: 48.1395
  name: Zaubzerstraße
- city: München
  id: 670
  lat: 11.6204
  lon: 48.1533
  name: Arabellapark
- city: München
  id: 671
  lat: 11.6207
  lon: 48.1537
  name: Arabellapark Nord
- city: München
  id: 680
  lat: 11.6163
  lon: 48.1489
  name: Richard-Strauss-Straße
- city: München
  id: 698
  lat: 11.639
  lon: 48.143
  name: Nettelbeckstraße
- city: München
  id: 699
  lat: 11.64
  lon: 48.1464
  name: Hermann-Gmeiner-Weg
- city: München
  id: 700
  lat: 11.6494
  lon: 48.149
  name: Daglfing
- city: München
  id: 701
  lat: 11.6437
  lon: 48.1472
  name: Marienburger Straße
- city: München
  id: 702
  lat: 11.6585
  lon: 48.1471
  name: Schichtlstraße
- city: München
  id: 703
  lat: 11.6613
  lon: 48.1429
  name: Trabrennbahn
- city: München
  id: 704
  lat: 11.6501
  lon: 48.1489
  name: Daglfing Bahnhof Ost
- city: München
  id: 705
  lat: 11.6485
  lon: 48.1485
  name: Daglfing Bahnhof West
- city: München
  id: 710
  lat: 11.6484
  lon: 48.1566
  name: Englschalking
- city: München
  id: 720
  lat: 11.6466
  lon: 48.1694
  name: Johanneskirchen
- city: München
  id: 721
  lat: 11.6446
  lon: 48.1693
  name: Johanneskirchen Bf West
- city: München
  id: 725
  lat: 11.6579
  lon: 48.1498
  name: Kunihohstraße
- city: München
  id: 727
  lat: 11.6626
  lon: 48.1622
  name: Westerlandanger
- city: München
  id: 728
  lat: 11.6593
  lon: 48.167
  name: Lübecker Straße
- city: München
  id: 730
  lat: 11.6551
  lon: 48.1399
  name: Burgauerstraße
- city: München
  id: 731
  lat: 11.662
  lon: 48.1406
  name: Rennbahnstraße
- city: München
  id: 740
  lat: 11.5731
  lon: 48.1812
  name: Milbertshofen
- city: München
  id: 745
  lat: 11.5699
  lon: 48.1892
  name: Bremer Straße
- city: München
  id: 750
  lat: 11.5727
  lon: 48.1875
  name: Frankfurter Ring
- city: München
  id: 751
  lat: 11.5728
  lon: 48.1859
  name: Korbinianplatz
- city: München
  id: 752
  lat: 11.5724
  lon: 48.1916
  name: Knorrstraße
- city: München
  id: 753
  lat: 11.5675
  lon: 48.1915
  name: Max-Diamand-Straße
- city: München
  id: 754
  lat: 11.5577
  lon: 48.1864
  name: Preußenstraße
- city: München
  id: 755
  lat: 11.5706
  lon: 48.1935
  name: BMW-FIZ
- city: München
  id: 756
  lat: 11.5721
  lon: 48.195
  name: Am Hart Süd
- city: München
  id: 757
  lat: 11.5749
  lon: 48.1923
  name: Oberhofer Weg
- city: München
  id: 758
  lat: 11.5822
  lon: 48.1913
  name: Anton-Ditt-Bogen
- city: München
  id: 760
  lat: 11.5718
  lon: 48.197
  name: Am Hart
- city: München
  id: 762
  lat: 11.5794
  lon: 48.1926
  name: Hufelandstraße
- city: München
  id: 767
  lat: 11.5903
  lon: 48.1923
  name: Lotte-Branz-Straße
- city: München
  id: 768
  lat: 11.5961
  lon: 48.1928
  name: Margot-Kalinke-Straße
- city: München
  id: 769
  lat: 11.5993
  lon: 48.1929
  name: Maria-Probst-Straße
- city: München
  id: 770
  lat: 11.5682
  lon: 48.2049
  name: Harthof
- city: München
  id: 771
  lat: 11.5925
  lon: 48.1963
  name: Helene-Wessel-Bogen
- city: München
  id: 780
  lat: 11.5625
  lon: 48.2128
  name: Dülferstraße
- city: München
  id: 788
  lat: 11.5607
  lon: 48.22
  name: Aschenbrennerstraße
- city: München
  id: 790
  lat: 11.5563
  lon: 48.2132
  name: Hasenbergl
- city: München
  id: 792
  lat: 11.5634
  lon: 48.2072
  name: Caracciolastraße
- city: München
  id: 800
  lat: 11.679
  lon: 48.1434
  name: Riem
- city: München
  id: 801
  lat: 11.674
  lon: 48.1263
  name: Kirchtruderinger Straße
- city: München
  id: 802
  lat: 11.6765
  lon: 48.1291
  name: Truchthari-Anger
- city: München
  id: 803
  lat: 11.6797
  lon: 48.1326
  name: Friedhof Riem
- city: München
  id: 804
  lat: 11.6814
  lon: 48.1351
  name: Schwankhardtweg
- city: München
  id: 805
  lat: 11.6817
  lon: 48.1407
  name: Martin-Empl-Ring
- city: München
  id: 807
  lat: 11.6579
  lon: 48.1303
  name: Heltauer Straße
- city: München
  id: 808
  lat: 11.7058
  lon: 48.1444
  name: Umschlagbahnhof
- city: München
  id: 809
  lat: 11.7009
  lon: 48.1438
  name: Hofbräuallee
- city: München
  id: 810
  lat: 11.6692
  lon: 48.1399
  name: Tierheim
- city: München
  id: 811
  lat: 11.6804
  lon: 48.1405
  name: Graf-Lehndorff-Straße
- city: München
  id: 813
  lat: 11.6902
  lon: 48.1355
  name: Am Messesee
- city: München
  id: 814
  lat: 11.6893
  lon: 48.1385
  name: Paul-Henri-Spaak-Straße
- city: München
  id: 815
  lat: 11.6854
  lon: 48.1409
  name: An der Point
- city: München
  id: 816
  lat: 11.6946
  lon: 48.1295
  name: Lehrer-Wirth-Straße
- city: München
  id: 817
  lat: 11.6894
  lon: 48.1295
  name: Helsinkistraße
- city: München
  id: 818
  lat: 11.6997
  lon: 48.1295
  name: Mutter-Teresa-Straße
- city: München
  id: 819
  lat: 11.7027
  lon: 48.1296
  name: Selma-Lagerlöf-Straße
- city: München
  id: 824
  lat: 11.6855
  lon: 48.1355
  name: Paul-Wassermann-Straße
- city: München
  id: 890
  lat: 11.61
  lon: 48.1255
  name: August-Everding-Straße
- city: München
  id: 891
  lat: 11.6047
  lon: 48.1288
  name: Ostbahnhof (Post)
- city: München
  id: 892
  lat: 11.6026
  lon: 48.1274
  name: Ostbahnhof (Bildungszentrum)
- city: München
  id: 893
  lat: 11.6319
  lon: 48.1308
  name: Baumkirchner Platz
- city: München
  id: 894
  lat: 11.6218
  lon: 48.1265
  name: Altöttinger Straße
- city: München
  id: 895
  lat: 11.6069
  lon: 48.127
  name: Ostbahnhof Friedenstraße
- city: München
  id: 896
  lat: 11.6193
  lon: 48.1246
  name: Grafinger Straße
- city: München
  id: 897
  lat: 11.6281
  lon: 48.1313
  name: Neumarkter Straße
- city: München
  id: 898
  lat: 11.6132
  lon: 48.1247
  name: Sankt Pius
- city: München
  id: 899
  lat: 11.6326
  lon: 48.1332
  name: Berg am Laim Bf Süd
- city: München
  id: 900
  lat: 11.616
  lon: 48.1343
  name: Leuchtenbergring
- city: München
  id: 901
  lat: 11.6157
  lon: 48.1309
  name: Ampfingstraße
- city: München
  id: 902
  lat: 11.6228
  lon: 48.1298
  name: Schlüsselbergstraße
- city: München
  id: 903
  lat: 11.6304
  lon: 48.1283
  name: Baumkirchner Straße
- city: München
  id: 904
  lat: 11.6382
  lon: 48.1267
  name: Mutschellestraße
- city: München
  id: 906
  lat: 11.6421
  lon: 48.1218
  name: St.-Veit-Straße
- city: München
  id: 907
  lat: 11.6324
  lon: 48.1239
  name: Sankt Michael
- city: München
  id: 908
  lat: 11.671
  lon: 48.1215
  name: Schmuckerweg
- city: München
  id: 909
  lat: 11.6668
  lon: 48.124
  name: Bajuwarenstraße
- city: München
  id: 910
  lat: 11.6337
  lon: 48.1361
  name: Berg am Laim
- city: München
  id: 911
  lat: 11.6605
  lon: 48.1192
  name: Halligenplatz
- city: München
  id: 912
  lat: 11.6566
  lon: 48.1171
  name: St.-Augustinus-Straße
- city: München
  id: 913
  lat: 11.6523
  lon: 48.1147
  name: Matterhornstraße
- city: München
  id: 914
  lat: 11.6547
  lon: 48.1091
  name: Peschelanger
- city: München
  id: 915
  lat: 11.659
  lon: 48.1058
  name: Friedrich-Engels-Bogen
- city: München
  id: 916
  lat: 11.6591
  lon: 48.1035
  name: Hugo-Lang-Bogen
- city: München
  id: 917
  lat: 11.6572
  lon: 48.0988
  name: Oskar-Maria-Graf-Ring
- city: München
  id: 920
  lat: 11.6633
  lon: 48.1255
  name: Trudering
- city: München
  id: 921
  lat: 11.6135
  lon: 48.1266
  name: Mühldorfstraße
- city: München
  id: 923
  lat: 11.6559
  lon: 48.1277
  name: Truderinger Straße, Brücke
- city: München
  id: 926
  lat: 11.6555
  lon: 48.126
  name: Halfinger Straße
- city: München
  id: 927
  lat: 11.6612
  lon: 48.126
  name: Truderinger Straße
- city: München
  id: 928
  lat: 11.6767
  lon: 48.1194
  name: Nikolaus-Prugger-Weg
- city: München
  id: 929
  lat: 11.6834
  lon: 48.1184
  name: Friedenspromenade
- city: München
  id: 930
  lat: 11.6952
  lon: 48.1155
  name: Bahnstraße
- city: München
  id: 931
  lat: 11.7011
  lon: 48.1132
  name: Phantasiestraße
- city: München
  id: 932
  lat: 11.7093
  lon: 48.1114
  name: Von-Erckert-Straße
- city: München
  id: 933
  lat: 11.6822
  lon: 48.1174
  name: Florastraße
- city: München
  id: 934
  lat: 11.6869
  lon: 48.1146
  name: Edeltraudstraße
- city: München
  id: 935
  lat: 11.6907
  lon: 48.1117
  name: Turnerstraße
- city: München
  id: 936
  lat: 11.6944
  lon: 48.1085
  name: Birkhahnweg
- city: München
  id: 936
  lat: 11.6944
  lon: 48.1085
  name: Waldtruderinger Straße
- city: München
  id: 937
  lat: 11.6971
  lon: 48.1064
  name: Togostraße
- city: München
  id: 938
  lat: 11.7
  lon: 48.1076
  name: Sperberstraße
- city: München
  id: 939
  lat: 11.6908
  lon: 48.1175
  name: Drosselweg
- city: München
  id: 940
  lat: 11.7041
  lon: 48.1038
  name: Iltisstraße
- city: München
  id: 941
  lat: 11.6451
  lon: 48.131
  name: Ursberger Straße
- city: München
  id: 942
  lat: 11.6507
  lon: 48.1295
  name: Thomas-Hauser-Straße
- city: München
  id: 943
  lat: 11.6502
  lon: 48.1198
  name: Rofanstraße
- city: München
  id: 944
  lat: 11.6539
  lon: 48.118
  name: Gnadenwaldplatz
- city: München
  id: 945
  lat: 11.6597
  lon: 48.1158
  name: Mönchbergstraße
- city: München
  id: 946
  lat: 11.6628
  lon: 48.1146
  name: Simplonstraße
- city: München
  id: 947
  lat: 11.6665
  lon: 48.1131
  name: Himalajastraße
- city: München
  id: 948
  lat: 11.6674
  lon: 48.1145
  name: Batschkastraße
- city: München
  id: 949
  lat: 11.6698
  lon: 48.1177
  name: Spertentalstraße
- city: München
  id: 950
  lat: 11.6718
  lon: 48.1138
  name: Zauberwaldstraße
- city: München
  id: 951
  lat: 11.6737
  lon: 48.1112
  name: Markgrafenstraße
- city: München
  id: 952
  lat: 11.6712
  lon: 48.1095
  name: Vogesenstraße
- city: München
  id: 953
  lat: 11.6638
  lon: 48.1084
  name: Feldbergstraße
- city: München
  id: 954
  lat: 11.6678
  lon: 48.1056
  name: Am Hochacker
- city: München
  id: 955
  lat: 11.6654
  lon: 48.1021
  name: Hippelstraße
- city: München
  id: 956
  lat: 11.6691
  lon: 48.1014
  name: Lamprechtstraße
- city: München
  id: 957
  lat: 11.6725
  lon: 48.1002
  name: Friesplatz
- city: München
  id: 958
  lat: 11.6772
  lon: 48.0988
  name: Nauestraße
- city: München
  id: 959
  lat: 11.6618
  lon: 48.1051
  name: Alois-Hahn-Weg
- city: München
  id: 960
  lat: 11.6488
  lon: 48.0985
  name: Kafkastraße
- city: München
  id: 961
  lat: 11.6527
  lon: 48.0975
  name: Sudermannallee
- city: München
  id: 962
  lat: 11.6554
  lon: 48.0963
  name: Klinikum Neuperlach
- city: München
  id: 963
  lat: 11.6538
  lon: 48.0942
  name: Tribulaunstraße
- city: München
  id: 964
  lat: 11.6617
  lon: 48.0907
  name: Im Gefilde
- city: München
  id: 965
  lat: 11.6691
  lon: 48.088
  name: Eulenspiegelstraße
- city: München
  id: 966
  lat: 11.6747
  lon: 48.0857
  name: Waldheimplatz
- city: München
  id: 967
  lat: 11.6723
  lon: 48.0821
  name: Waldperlach
- city: München
  id: 968
  lat: 11.6768
  lon: 48.0812
  name: Salzmannstraße
- city: München
  id: 969
  lat: 11.6603
  lon: 48.1331
  name: Schatzbogen
- city: München
  id: 970
  lat: 11.649
  lon: 48.0922
  name: Otto-Hahn-Ring
- city: München
  id: 971
  lat: 11.6638
  lon: 48.1345
  name: Stahlgruberring
- city: München
  id: 972
  lat: 11.6691
  lon: 48.1322
  name: Karl-Schmid-Straße
- city: München
  id: 973
  lat: 11.6679
  lon: 48.1359
  name: Moosfeld Gewerbegebiet
- city: München
  id: 974
  lat: 11.6464
  lon: 48.0964
  name: Putzbrunner Straße
- city: München
  id: 975
  lat: 11.6774
  lon: 48.1141
  name: Ottilienstraße
- city: München
  id: 976
  lat: 11.6618
  lon: 48.0864
  name: Isengaustraße
- city: München
  id: 977
  lat: 11.6613
  lon: 48.084
  name: Klara-Ziegler-Bogen
- city: München
  id: 978
  lat: 11.6092
  lon: 48.1046
  name: Görzer Straße Schule
- city: München
  id: 979
  lat: 11.7153
  lon: 48.1367
  name: Sigmund-Riefler-Bogen
- city: München
  id: 981
  lat: 11.6803
  lon: 48.0832
  name: Am Hain
- city: München
  id: 983
  lat: 11.5201
  lon: 48.1454
  name: Wilhelm-Hale-Straße
- city: München
  id: 988
  lat: 11.5892
  lon: 48.1798
  name: Anni-Albers-Straße
- city: München
  id: 989
  lat: 11.6566
  lon: 48.1111
  name: Bergerwaldstraße
- city: München
  id: 990
  lat: 11.529
  lon: 48.1635
  name: Gern
- city: München
  id: 991
  lat: 11.6727
  lon: 48.0813
  name: Waldperlach (Süd)
- city: München
  id: 993
  lat: 11.665
  lon: 48.1213
  name: Wasserburger Landstraße
- city: München
  id: 994
  lat: 11.6708
  lon: 48.1197
  name: Kulturzentrum Trudering
- city: München
  id: 995
  lat: 11.7046
  lon: 48.1123
  name: Jagdhornstraße
- city: München
  id: 997
  lat: 11.6242
  lon: 48.1199
  name: Bad-Schachener-Straße
- city: München
  id: 998
  lat: 11.6281
  lon: 48.0925
  name: Weidener Straße
- city: München
  id: 999
  lat: 11.6282
  lon: 48.0885
  name: Bayerwaldstraße
- city: München
  id: 1000
  lat: 11.6306
  lon: 48.0938
  name: Perlach
- city: München
  id: 1001
  lat: 11.6061
  lon: 48.1208
  name: Anzinger Straße
- city: München
  id: 1002
  lat: 11.6336
  lon: 48.0886
  name: Nailastraße
- city: München
  id: 1003
  lat: 11.6133
  lon: 48.1155
  name: Ramersdorf
- city: München
  id: 1004
  lat: 11.6212
  lon: 48.1157
  name: Hechtseestraße
- city: München
  id: 1005
  lat: 11.6251
  lon: 48.1167
  name: Krumbadstraße
- city: München
  id: 1006
  lat: 11.6348
  lon: 48.0909
  name: Rudolf-Zorn-Straße
- city: München
  id: 1007
  lat: 11.64
  lon: 48.117
  name: Heinrich-Wieland-Straße
- city: München
  id: 1008
  lat: 11.6358
  lon: 48.0885
  name: Hermann-Pünder-Straße
- city: München
  id: 1009
  lat: 11.6495
  lon: 48.1124
  name: Corinthstraße
- city: München
  id: 1010
  lat: 11.6444
  lon: 48.0895
  name: Neuperlach Süd
- city: München
  id: 1011
  lat: 11.6499
  lon: 48.1091
  name: Karl-Marx-Ring
- city: München
  id: 1012
  lat: 11.6347
  lon: 48.0863
  name: Ludwig-Linsert-Straße
- city: München
  id: 1013
  lat: 11.6394
  lon: 48.0852
  name: Ludwig-Erhard-Allee
- city: München
  id: 1014
  lat: 11.6364
  lon: 48.0989
  name: Wilhelm-Hoegner-Straße
- city: München
  id: 1015
  lat: 11.6443
  lon: 48.0973
  name: Thomas-Dehler-Straße
- city: München
  id: 1016
  lat: 11.6403
  lon: 48.1043
  name: Jakob-Kaiser-Straße
- city: München
  id: 1017
  lat: 11.6366
  lon: 48.103
  name: Holzwiesenstraße
- city: München
  id: 1018
  lat: 11.6429
  lon: 48.0851
  name: Curd-Jürgens-Straße
- city: München
  id: 1019
  lat: 11.6303
  lon: 48.1001
  name: Pfanzeltplatz
- city: München
  id: 1020
  lat: 11.6433
  lon: 48.0954
  name: Therese-Giehse-Allee
- city: München
  id: 1021
  lat: 11.622
  lon: 48.1009
  name: Neuer Südfriedhof
- city: München
  id: 1022
  lat: 11.6065
  lon: 48.1011
  name: Hochäckerstraße
- city: München
  id: 1023
  lat: 11.6052
  lon: 48.1046
  name: Ständlerstraße
- city: München
  id: 1024
  lat: 11.6183
  lon: 48.1012
  name: Neuer Südfriedhof West
- city: München
  id: 1025
  lat: 11.6003
  lon: 48.1192
  name: St.-Martin-Straße Ost
- city: München
  id: 1026
  lat: 11.6021
  lon: 48.1158
  name: Thomasiusplatz
- city: München
  id: 1027
  lat: 11.6129
  lon: 48.1208
  name: Aschheimer Straße
- city: München
  id: 1028
  lat: 11.6321
  lon: 48.1111
  name: Ostpark Eislaufzentrum
- city: München
  id: 1029
  lat: 11.6359
  lon: 48.0948
  name: Wolframstraße
- city: München
  id: 1030
  lat: 11.6474
  lon: 48.101
  name: Neuperlach Zentrum
- city: München
  id: 1031
  lat: 11.6177
  lon: 48.1117
  name: Diakon-Kerolt-Weg
- city: München
  id: 1032
  lat: 11.6188
  lon: 48.1086
  name: Woferlstraße
- city: München
  id: 1033
  lat: 11.6246
  lon: 48.1038
  name: Weddigenstraße
- city: München
  id: 1034
  lat: 11.6408
  lon: 48.0995
  name: Schumacherring
- city: München
  id: 1035
  lat: 11.6405
  lon: 48.098
  name: Friedhof Perlach
- city: München
  id: 1036
  lat: 11.6263
  lon: 48.1129
  name: Berger-Kreuz-Straße
- city: München
  id: 1037
  lat: 11.6274
  lon: 48.1106
  name: Hofangerstraße
- city: München
  id: 1038
  lat: 11.6278
  lon: 48.107
  name: Emdenstraße
- city: München
  id: 1039
  lat: 11.6378
  lon: 48.1103
  name: Georg-Brauchle-Haus
- city: München
  id: 1040
  lat: 11.6464
  lon: 48.1091
  name: Quiddestraße
- city: München
  id: 1041
  lat: 11.6365
  lon: 48.1068
  name: Nawiaskystraße
- city: München
  id: 1042
  lat: 11.6392
  lon: 48.1091
  name: Staudingerstraße
- city: München
  id: 1043
  lat: 11.6443
  lon: 48.1091
  name: Plettstraße
- city: München
  id: 1044
  lat: 11.5972
  lon: 48.115
  name: Ungsteiner Straße
- city: München
  id: 1045
  lat: 11.5891
  lon: 48.1097
  name: Fockensteinstraße
- city: München
  id: 1046
  lat: 11.5842
  lon: 48.1109
  name: Valeppstraße
- city: München
  id: 1047
  lat: 11.6212
  lon: 48.1063
  name: Adilostraße
- city: München
  id: 1048
  lat: 11.6464
  lon: 48.1066
  name: Siegfried-Mollier-Straße
- city: München
  id: 1050
  lat: 11.6306
  lon: 48.1188
  name: Michaelibad
- city: München
  id: 1053
  lat: 11.6112
  lon: 48.0898
  name: Fasangartenstraße
- city: München
  id: 1054
  lat: 11.6098
  lon: 48.0928
  name: Obernzeller Straße
- city: München
  id: 1055
  lat: 11.6078
  lon: 48.0974
  name: Plassenburgstraße
- city: München
  id: 1056
  lat: 11.6041
  lon: 48.1086
  name: Balanstraße
- city: München
  id: 1057
  lat: 11.603
  lon: 48.1125
  name: Klagenfurter Straße
- city: München
  id: 1058
  lat: 11.6104
  lon: 48.1014
  name: Mitterweg
- city: München
  id: 1059
  lat: 11.6094
  lon: 48.0956
  name: Görzer Straße
- city: München
  id: 1060
  lat: 11.6191
  lon: 48.1204
  name: Innsbrucker Ring
- city: München
  id: 1061
  lat: 11.6075
  lon: 48.0887
  name: Landrichterstraße
- city: München
  id: 1062
  lat: 11.6017
  lon: 48.0927
  name: Cincinnatistraße
- city: München
  id: 1064
  lat: 11.6127
  lon: 48.1106
  name: Langbürgener Straße
- city: München
  id: 1070
  lat: 11.6095
  lon: 48.1185
  name: Karl-Preis-Platz
- city: München
  id: 1100
  lat: 11.5965
  lon: 48.1187
  name: St.-Martin-Straße
- city: München
  id: 1101
  lat: 11.5391
  lon: 48.1279
  name: Ganghoferbrücke
- city: München
  id: 1102
  lat: 11.5407
  lon: 48.1253
  name: Herzog-Ernst-Platz
- city: München
  id: 1103
  lat: 11.5411
  lon: 48.122
  name: Sendlinger Kirche
- city: München
  id: 1104
  lat: 11.5407
  lon: 48.12
  name: Margaretenplatz
- city: München
  id: 1105
  lat: 11.5836
  lon: 48.1191
  name: Ostfriedhof
- city: München
  id: 1106
  lat: 11.5884
  lon: 48.1172
  name: St.-Martins-Platz
- city: München
  id: 1107
  lat: 11.5925
  lon: 48.1149
  name: Werinherstraße
- city: München
  id: 1108
  lat: 11.5963
  lon: 48.1067
  name: Chiemgaustraße
- city: München
  id: 1109
  lat: 11.5971
  lon: 48.1029
  name: Schwanseestraße
- city: München
  id: 1110
  lat: 11.5946
  lon: 48.1108
  name: Giesing
- city: München
  id: 1111
  lat: 11.5873
  lon: 48.1047
  name: Traunsteiner Straße
- city: München
  id: 1112
  lat: 11.5907
  lon: 48.1052
  name: Pöllatstraße
- city: München
  id: 1115
  lat: 11.5762
  lon: 48.1117
  name: Tegernseer Landstraße
- city: München
  id: 1117
  lat: 11.5698
  lon: 48.1046
  name: Kurzstraße
- city: München
  id: 1118
  lat: 11.5667
  lon: 48.1008
  name: Südtiroler Straße
- city: München
  id: 1119
  lat: 11.5637
  lon: 48.0962
  name: Tiroler Platz
- city: München
  id: 1120
  lat: 11.604
  lon: 48.0934
  name: Fasangarten
- city: München
  id: 1121
  lat: 11.5626
  lon: 48.092
  name: Authariplatz
- city: München
  id: 1122
  lat: 11.5569
  lon: 48.0903
  name: Theodolindenplatz
- city: München
  id: 1123
  lat: 11.5549
  lon: 48.0869
  name: Klinikum Harlaching
- city: München
  id: 1124
  lat: 11.5518
  lon: 48.0802
  name: Menterschwaige
- city: München
  id: 1125
  lat: 11.5502
  lon: 48.0767
  name: Großhesseloher Brücke
- city: München
  id: 1126
  lat: 11.5474
  lon: 48.0713
  name: Schilcherweg
- city: München
  id: 1128
  lat: 11.5486
  lon: 48.123
  name: Senserstraße
- city: München
  id: 1129
  lat: 11.5401
  lon: 48.1165
  name: Am Harras
- city: München
  id: 1130
  lat: 11.5362
  lon: 48.1169
  name: Harras
- city: München
  id: 1131
  lat: 11.5445
  lon: 48.1223
  name: Aberlestraße
- city: München
  id: 1132
  lat: 11.5553
  lon: 48.1204
  name: Lagerhausstraße
- city: München
  id: 1133
  lat: 11.5523
  lon: 48.1197
  name: Großmarkthalle
- city: München
  id: 1134
  lat: 11.5503
  lon: 48.1177
  name: Gotzinger Platz
- city: München
  id: 1139
  lat: 11.5444
  lon: 48.0974
  name: Maria-Einsiedel-Straße
- city: München
  id: 1140
  lat: 11.5483
  lon: 48.1193
  name: Implerstraße
- city: München
  id: 1141
  lat: 11.5482
  lon: 48.1005
  name: Zentralländstraße
- city: München
  id: 1142
  lat: 11.5471
  lon: 48.0968
  name: Bad Maria Einsiedel
- city: München
  id: 1143
  lat: 11.5456
  lon: 48.0945
  name: Floßlände
- city: München
  id: 1144
  lat: 11.544
  lon: 48.0916
  name: Campingplatz Thalkirchen
- city: München
  id: 1145
  lat: 11.5412
  lon: 48.0871
  name: Hinterbrühl
- city: München
  id: 1146
  lat: 11.5795
  lon: 48.111
  name: Spixstraße
- city: München
  id: 1148
  lat: 11.5536
  lon: 48.1123
  name: Schäftlarnstraße
- city: München
  id: 1149
  lat: 11.5396
  lon: 48.1112
  name: Heckenstallerstraße
- city: München
  id: 1150
  lat: 11.5335
  lon: 48.1334
  name: Heimeranplatz
- city: München
  id: 1151
  lat: 11.54
  lon: 48.1073
  name: Neuhofen
- city: München
  id: 1152
  lat: 11.5403
  lon: 48.1044
  name: Steinerstraße
- city: München
  id: 1154
  lat: 11.541
  lon: 48.0964
  name: Rupert-Mayer-Straße
- city: München
  id: 1156
  lat: 11.5341
  lon: 48.0862
  name: Krankenhaus Martha Maria
- city: München
  id: 1157
  lat: 11.5381
  lon: 48.1034
  name: Flößergasse
- city: München
  id: 1158
  lat: 11.5382
  lon: 48.1004
  name: Tölzer Straße
- city: München
  id: 1159
  lat: 11.5294
  lon: 48.1322
  name: Heimeranplatz Süd
- city: München
  id: 1160
  lat: 11.5871
  lon: 48.1128
  name: Untersbergstraße
- city: München
  id: 1161
  lat: 11.5375
  lon: 48.0899
  name: Wolfratshauser Straße
- city: München
  id: 1162
  lat: 11.5401
  lon: 48.0928
  name: Neunkirchner Straße
- city: München
  id: 1163
  lat: 11.5719
  lon: 48.1136
  name: Jakob-Gelb-Platz
- city: München
  id: 1164
  lat: 11.5701
  lon: 48.1144
  name: Hans-Mielich-Straße
- city: München
  id: 1165
  lat: 11.5587
  lon: 48.1006
  name: Tierpark (Alemannenstr.)
- city: München
  id: 1166
  lat: 11.5616
  lon: 48.1037
  name: Wilhelm-Kuhnert-Straße
- city: München
  id: 1167
  lat: 11.5648
  lon: 48.1076
  name: Lebscheestraße
- city: München
  id: 1168
  lat: 11.5672
  lon: 48.1102
  name: Ludmillastraße
- city: München
  id: 1169
  lat: 11.5729
  lon: 48.1156
  name: Winterstraße
- city: München
  id: 1170
  lat: 11.5795
  lon: 48.1152
  name: Silberhornstraße
- city: München
  id: 1171
  lat: 11.5596
  lon: 48.0885
  name: Theodolindenstraße
- city: München
  id: 1172
  lat: 11.5638
  lon: 48.0904
  name: Autharistraße
- city: München
  id: 1173
  lat: 11.5698
  lon: 48.0931
  name: Griechenstraße
- city: München
  id: 1174
  lat: 11.5739
  lon: 48.0948
  name: Säbener Straße
- city: München
  id: 1175
  lat: 11.5743
  lon: 48.0955
  name: Hollerbusch
- city: München
  id: 1177
  lat: 11.5862
  lon: 48.0999
  name: Stadelheimer Straße
- city: München
  id: 1178
  lat: 11.591
  lon: 48.1012
  name: Frasdorfer Straße
- city: München
  id: 1179
  lat: 11.5994
  lon: 48.0876
  name: Kiefernstraße
- city: München
  id: 1180
  lat: 11.5698
  lon: 48.1115
  name: Candidplatz
- city: München
  id: 1181
  lat: 11.5972
  lon: 48.0911
  name: Minnewitstraße
- city: München
  id: 1182
  lat: 11.5905
  lon: 48.0942
  name: Lincolnstraße
- city: München
  id: 1183
  lat: 11.5869
  lon: 48.097
  name: Stettnerstraße
- city: München
  id: 1184
  lat: 11.582
  lon: 48.1016
  name: Soyerhofstraße
- city: München
  id: 1185
  lat: 11.5938
  lon: 48.0914
  name: Leifstraße
- city: München
  id: 1187
  lat: 11.5797
  lon: 48.1159
  name: Silberhorn-/Ichostraße
- city: München
  id: 1188
  lat: 11.5805
  lon: 48.1068
  name: Waltramstraße
- city: München
  id: 1189
  lat: 11.5827
  lon: 48.0987
  name: Peter-Auzinger-Straße
- city: München
  id: 1190
  lat: 11.5747
  lon: 48.1092
  name: Wettersteinplatz
- city: München
  id: 1191
  lat: 11.5652
  lon: 48.1131
  name: Gerhardstraße
- city: München
  id: 1200
  lat: 11.5818
  lon: 48.104
  name: St.-Quirin-Platz
- city: München
  id: 1201
  lat: 11.5221
  lon: 48.1375
  name: Hauzenberger Straße
- city: München
  id: 1202
  lat: 11.5184
  lon: 48.1401
  name: Lautensackstraße
- city: München
  id: 1203
  lat: 11.5122
  lon: 48.1416
  name: Schäufeleinstraße
- city: München
  id: 1204
  lat: 11.5111
  lon: 48.1393
  name: Agnes-Bernauer-Straße
- city: München
  id: 1205
  lat: 11.524
  lon: 48.1361
  name: Elsenheimerstraße
- city: München
  id: 1206
  lat: 11.5242
  lon: 48.1407
  name: Am Lokschuppen
- city: München
  id: 1208
  lat: 11.5168
  lon: 48.1297
  name: Fachnerstraße
- city: München
  id: 1210
  lat: 11.581
  lon: 48.0979
  name: Mangfallplatz
- city: München
  id: 1211
  lat: 11.5777
  lon: 48.0965
  name: Mangfallplatz Süd
- city: München
  id: 1212
  lat: 11.512
  lon: 48.1274
  name: Säulingstraße
- city: München
  id: 1213
  lat: 11.5083
  lon: 48.1259
  name: Stegener Weg
- city: München
  id: 1214
  lat: 11.5172
  lon: 48.1349
  name: Hans-Thonauer-Straße
- city: München
  id: 1215
  lat: 11.4825
  lon: 48.1451
  name: Veldener Straße
- city: München
  id: 1216
  lat: 11.5136
  lon: 48.135
  name: Siglstraße
- city: München
  id: 1217
  lat: 11.5311
  lon: 48.131
  name: Hansastraße
- city: München
  id: 1218
  lat: 11.5345
  lon: 48.1283
  name: Hansapark
- city: München
  id: 1220
  lat: 11.6344
  lon: 48.127
  name: Josephsburg
- city: München
  id: 1222
  lat: 11.5285
  lon: 48.1301
  name: Garmischer Straße
- city: München
  id: 1224
  lat: 11.522
  lon: 48.1263
  name: Siegenburger Straße
- city: München
  id: 1226
  lat: 11.5183
  lon: 48.1208
  name: Hinterbärenbadstraße
- city: München
  id: 1230
  lat: 11.6447
  lon: 48.1259
  name: Kreillerstraße
- city: München
  id: 1232
  lat: 11.536
  lon: 48.126
  name: Baumgartnerstraße
- city: München
  id: 1234
  lat: 11.5346
  lon: 48.124
  name: Fuggerstraße
- city: München
  id: 1236
  lat: 11.5347
  lon: 48.1204
  name: Ortlerstraße
- city: München
  id: 1240
  lat: 11.6707
  lon: 48.1305
  name: Moosfeld
- city: München
  id: 1250
  lat: 11.6898
  lon: 48.1334
  name: Messestadt West
- city: München
  id: 1251
  lat: 11.6911
  lon: 48.1284
  name: Messestadt Süd
- city: München
  id: 1260
  lat: 11.7036
  lon: 48.1334
  name: Messestadt Ost
- city: München
  id: 1300
  lat: 11.5363
  lon: 48.1087
  name: Mittersendling
- city: München
  id: 1301
  lat: 11.5304
  lon: 48.0934
  name: Baierbrunner Straße
- city: München
  id: 1302
  lat: 11.5291
  lon: 48.0998
  name: Hofmannstraße
- city: München
  id: 1303
  lat: 11.5238
  lon: 48.0994
  name: Ratzingerplatz
- city: München
  id: 1304
  lat: 11.5232
  lon: 48.0754
  name: Ringelnatzweg
- city: München
  id: 1305
  lat: 11.5316
  lon: 48.1168
  name: Drachenseestraße
- city: München
  id: 1306
  lat: 11.5228
  lon: 48.115
  name: Fernpaßstraße
- city: München
  id: 1307
  lat: 11.517
  lon: 48.1133
  name: Luise-Kiesselbach-Platz
- city: München
  id: 1308
  lat: 11.5138
  lon: 48.1132
  name: Ettalstraße
- city: München
  id: 1309
  lat: 11.5078
  lon: 48.1125
  name: Werdenfelsstraße
- city: München
  id: 1310
  lat: 11.5316
  lon: 48.0955
  name: Siemenswerke
- city: München
  id: 1311
  lat: 11.5023
  lon: 48.1121
  name: Waldfriedhof
- city: München
  id: 1312
  lat: 11.503
  lon: 48.1123
  name: Waldfriedhof (Wendeschleife)
- city: München
  id: 1313
  lat: 11.5262
  lon: 48.11
  name: Grünstraße
- city: München
  id: 1315
  lat: 11.5201
  lon: 48.1093
  name: Pilsenseestraße
- city: München
  id: 1316
  lat: 11.5224
  lon: 48.1068
  name: Höglwörther Straße
- city: München
  id: 1317
  lat: 11.5242
  lon: 48.1019
  name: Murnauer Straße
- city: München
  id: 1318
  lat: 11.5235
  lon: 48.0805
  name: Diefenbachstraße
- city: München
  id: 1319
  lat: 11.5181
  lon: 48.1048
  name: Aichacher Straße
- city: München
  id: 1320
  lat: 11.5275
  lon: 48.0791
  name: Solln
- city: München
  id: 1321
  lat: 11.5343
  lon: 48.1095
  name: Adunistraße
- city: München
  id: 1322
  lat: 11.5326
  lon: 48.1058
  name: Schneemannstraße
- city: München
  id: 1323
  lat: 11.53
  lon: 48.1026
  name: Zielstattstraße
- city: München
  id: 1324
  lat: 11.5186
  lon: 48.0988
  name: Geisenhausenerstraße
- city: München
  id: 1325
  lat: 11.5252
  lon: 48.0769
  name: Sollner Straße
- city: München
  id: 1326
  lat: 11.5198
  lon: 48.0723
  name: Melchiorstraße
- city: München
  id: 1327
  lat: 11.5276
  lon: 48.0957
  name: Gmunder Straße
- city: München
  id: 1328
  lat: 11.529
  lon: 48.0813
  name: Friedastraße
- city: München
  id: 1329
  lat: 11.5275
  lon: 48.0814
  name: Solln Bf Wendeschleife
- city: München
  id: 1330
  lat: 11.5266
  lon: 48.1165
  name: Partnachplatz
- city: München
  id: 1331
  lat: 11.5371
  lon: 48.0824
  name: Josephinenstraße
- city: München
  id: 1332
  lat: 11.5072
  lon: 48.0875
  name: Weltistraße
- city: München
  id: 1333
  lat: 11.5329
  lon: 48.0906
  name: Carola-Neher-Straße
- city: München
  id: 1334
  lat: 11.5091
  lon: 48.0889
  name: Fertigstraße
- city: München
  id: 1335
  lat: 11.5338
  lon: 48.1128
  name: Johann-Clanze-Straße
- city: München
  id: 1336
  lat: 11.526
  lon: 48.1128
  name: Friedrich-Hebbel-Straße
- city: München
  id: 1337
  lat: 11.5234
  lon: 48.0952
  name: Kistlerhofstraße
- city: München
  id: 1338
  lat: 11.5226
  lon: 48.0934
  name: Leutstettener Straße
- city: München
  id: 1339
  lat: 11.5211
  lon: 48.0905
  name: Siemensallee
- city: München
  id: 1340
  lat: 11.5171
  lon: 48.1179
  name: Westpark
- city: München
  id: 1341
  lat: 11.5177
  lon: 48.0905
  name: Münsinger Straße
- city: München
  id: 1342
  lat: 11.5142
  lon: 48.09
  name: Spindlerplatz
- city: München
  id: 1343
  lat: 11.5149
  lon: 48.0879
  name: Sentilostraße
- city: München
  id: 1344
  lat: 11.5133
  lon: 48.0851
  name: Bastian-Schmid-Platz
- city: München
  id: 1345
  lat: 11.5197
  lon: 48.0877
  name: Marienstern
- city: München
  id: 1346
  lat: 11.5172
  lon: 48.0837
  name: Hofbrunnstraße
- city: München
  id: 1347
  lat: 11.5101
  lon: 48.0862
  name: Glötzleweg
- city: München
  id: 1348
  lat: 11.5064
  lon: 48.0856
  name: Kandinskystraße
- city: München
  id: 1349
  lat: 11.5061
  lon: 48.0822
  name: Wilhelm-Busch-Straße
- city: München
  id: 1350
  lat: 11.5029
  lon: 48.0895
  name: Munckerstraße
- city: München
  id: 1351
  lat: 11.5037
  lon: 48.0824
  name: Gulbranssonstraße
- city: München
  id: 1352
  lat: 11.5036
  lon: 48.0798
  name: Parkstadt Solln
- city: München
  id: 1353
  lat: 11.5199
  lon: 48.0825
  name: Allescherstraße
- city: München
  id: 1354
  lat: 11.503
  lon: 48.0866
  name: Stäblistraße
- city: München
  id: 1355
  lat: 11.4908
  lon: 48.0847
  name: Nesselwanger Straße
- city: München
  id: 1356
  lat: 11.4947
  lon: 48.0848
  name: Forstenried
- city: München
  id: 1357
  lat: 11.508
  lon: 48.0784
  name: Eberlestraße
- city: München
  id: 1358
  lat: 11.5143
  lon: 48.0762
  name: Bleibtreustraße
- city: München
  id: 1359
  lat: 11.5195
  lon: 48.0764
  name: Stridbeckstraße
- city: München
  id: 1360
  lat: 11.5089
  lon: 48.0818
  name: Gilgstraße
- city: München
  id: 1361
  lat: 11.5331
  lon: 48.1
  name: Geretsrieder Straße
- city: München
  id: 1362
  lat: 11.5171
  lon: 48.0691
  name: Waldfriedhof Solln
- city: München
  id: 1363
  lat: 11.5239
  lon: 48.0719
  name: Whistlerweg
- city: München
  id: 1402
  lat: 11.491
  lon: 48.1082
  name: Aurikelstraße
- city: München
  id: 1403
  lat: 11.5127
  lon: 48.0788
  name: Plattlinger Straße
- city: München
  id: 1404
  lat: 11.4887
  lon: 48.1036
  name: Lorettoplatz
- city: München
  id: 1405
  lat: 11.5064
  lon: 48.0922
  name: Staffelseestraße
- city: München
  id: 1408
  lat: 11.504
  lon: 48.0943
  name: Züricher Straße
- city: München
  id: 1409
  lat: 11.5011
  lon: 48.0947
  name: Limmatstraße
- city: München
  id: 1411
  lat: 11.4957
  lon: 48.0864
  name: Hatzelweg
- city: München
  id: 1413
  lat: 11.4969
  lon: 48.0899
  name: Kriegelsteinerstraße
- city: München
  id: 1415
  lat: 11.4994
  lon: 48.087
  name: Bad Forstenried
- city: München
  id: 1416
  lat: 11.4854
  lon: 48.0868
  name: Neurieder Straße
- city: München
  id: 1421
  lat: 11.4885
  lon: 48.0774
  name: Forstenrieder Park
- city: München
  id: 1422
  lat: 11.4922
  lon: 48.0801
  name: Mindelheimer Straße
- city: München
  id: 1423
  lat: 11.494
  lon: 48.0823
  name: Spielmannsauer Straße
- city: München
  id: 1424
  lat: 11.4768
  lon: 48.1136
  name: Marchioninistraße
- city: München
  id: 1426
  lat: 11.4754
  lon: 48.1086
  name: Max-Lebsche-Platz
- city: München
  id: 1430
  lat: 11.5487
  lon: 48.1122
  name: Brudermühlstraße
- city: München
  id: 1431
  lat: 11.5395
  lon: 48.113
  name: Sylvensteinstraße
- city: München
  id: 1432
  lat: 11.4752
  lon: 48.1052
  name: Zöllerstraße
- city: München
  id: 1434
  lat: 11.479
  lon: 48.0993
  name: Ehrenmal
- city: München
  id: 1436
  lat: 11.4805
  lon: 48.0951
  name: Tischlerstraße
- city: München
  id: 1437
  lat: 11.4812
  lon: 48.0934
  name: Bellinzonastraße
- city: München
  id: 1438
  lat: 11.4765
  lon: 48.0947
  name: Forst-Kasten-Allee
- city: München
  id: 1440
  lat: 11.5466
  lon: 48.1014
  name: Thalkirchen (Tierpark)
- city: München
  id: 1441
  lat: 11.4792
  lon: 48.0882
  name: Maxhofstraße
- city: München
  id: 1442
  lat: 11.4785
  lon: 48.0849
  name: Gautinger Straße
- city: München
  id: 1444
  lat: 11.4838
  lon: 48.0835
  name: Vinzenz-Schüpfer-Straße
- city: München
  id: 1446
  lat: 11.4856
  lon: 48.082
  name: Allgäuer Straße
- city: München
  id: 1448
  lat: 11.4842
  lon: 48.0788
  name: Kemptener Straße
- city: München
  id: 1450
  lat: 11.538
  lon: 48.0984
  name: Obersendling
- city: München
  id: 1452
  lat: 11.4751
  lon: 48.0907
  name: Tessiner Straße
- city: München
  id: 1454
  lat: 11.4754
  lon: 48.093
  name: Appenzeller Straße
- city: München
  id: 1460
  lat: 11.5241
  lon: 48.0979
  name: Aidenbachstraße
- city: München
  id: 1462
  lat: 11.5022
  lon: 48.1077
  name: Waldfriedhof Haupteingang
- city: München
  id: 1464
  lat: 11.5084
  lon: 48.0982
  name: Drygalski-Allee
- city: München
  id: 1466
  lat: 11.5111
  lon: 48.1009
  name: Südpark
- city: München
  id: 1470
  lat: 11.5135
  lon: 48.0981
  name: Machtlfinger Straße
- city: München
  id: 1472
  lat: 11.4739
  lon: 48.1112
  name: Klinikum Großhadern Ost
- city: München
  id: 1474
  lat: 11.4668
  lon: 48.1123
  name: Klinikum Großhadern Nord
- city: München
  id: 1476
  lat: 11.4666
  lon: 48.1085
  name: Klinikum West
- city: München
  id: 1480
  lat: 11.4985
  lon: 48.0947
  name: Forstenrieder Allee
- city: München
  id: 1490
  lat: 11.4903
  lon: 48.0905
  name: Basler Straße
- city: München
  id: 1500
  lat: 11.4804
  lon: 48.0886
  name: Fürstenried West
- city: München
  id: 1502
  lat: 11.4948
  lon: 48.1122
  name: Kornwegerstraße
- city: München
  id: 1510
  lat: 11.5024
  lon: 48.1163
  name: Holzapfelkreuth
- city: München
  id: 1514
  lat: 11.5026
  lon: 48.1217
  name: Andreas-Vöst-Straße
- city: München
  id: 1516
  lat: 11.5028
  lon: 48.126
  name: Ammerseestraße
- city: München
  id: 1518
  lat: 11.5028
  lon: 48.1312
  name: Aindorferstraße
- city: München
  id: 1520
  lat: 11.4901
  lon: 48.1184
  name: Haderner Stern
- city: München
  id: 1524
  lat: 11.4951
  lon: 48.1173
  name: Gräfelfinger Straße
- city: München
  id: 1525
  lat: 11.4962
  lon: 48.1195
  name: Kurparkstraße
- city: München
  id: 1526
  lat: 11.4916
  lon: 48.1206
  name: Stiftsbogen
- city: München
  id: 1527
  lat: 11.4872
  lon: 48.1206
  name: Wolkerweg
- city: München
  id: 1530
  lat: 11.4772
  lon: 48.1155
  name: Großhadern
- city: München
  id: 1532
  lat: 11.4811
  lon: 48.1195
  name: Großhaderner Straße
- city: München
  id: 1533
  lat: 11.4757
  lon: 48.1221
  name: Gelbhofstraße
- city: München
  id: 1534
  lat: 11.4783
  lon: 48.12
  name: Am Ährenfeld
- city: München
  id: 1535
  lat: 11.4691
  lon: 48.1199
  name: Am Hedernfeld
- city: München
  id: 1536
  lat: 11.4789
  lon: 48.1222
  name: Haderunstraße
- city: München
  id: 1537
  lat: 11.4728
  lon: 48.1217
  name: Am Hedernfeld Nord
- city: München
  id: 1538
  lat: 11.4793
  lon: 48.1258
  name: Krokusstraße
- city: München
  id: 1539
  lat: 11.4643
  lon: 48.1134
  name: Butenandstraße
- city: München
  id: 1540
  lat: 11.4738
  lon: 48.1089
  name: Klinikum Großhadern
- city: München
  id: 1541
  lat: 11.4691
  lon: 48.1177
  name: Hanna-Kirchner-Weg
- city: München
  id: 1542
  lat: 11.4754
  lon: 48.1256
  name: Terofalstraße
- city: München
  id: 1543
  lat: 11.4704
  lon: 48.128
  name: Flemischweg
- city: München
  id: 1544
  lat: 11.4697
  lon: 48.1267
  name: Wastl-Witt-Straße
- city: München
  id: 1545
  lat: 11.473
  lon: 48.1195
  name: Wildanger
- city: München
  id: 1546
  lat: 11.4756
  lon: 48.1208
  name: Drozzaweg
- city: München
  id: 1552
  lat: 11.4978
  lon: 48.1257
  name: Senftenauerstraße
- city: München
  id: 1554
  lat: 11.49
  lon: 48.1246
  name: Gondrellplatz
- city: München
  id: 1562
  lat: 11.4875
  lon: 48.1137
  name: Saalburgstraße
- city: München
  id: 1563
  lat: 11.4833
  lon: 48.1146
  name: Platanenstraße
- city: München
  id: 1572
  lat: 11.4715
  lon: 48.115
  name: Zinckgrafstraße
- city: München
  id: 1574
  lat: 11.4672
  lon: 48.1147
  name: Waldhüterstraße
- city: München
  id: 1602
  lat: 11.5031
  lon: 48.1397
  name: Fürstenrieder Straße
- city: München
  id: 1604
  lat: 11.496
  lon: 48.1399
  name: Agnes-Bernauer-Platz
- city: München
  id: 1605
  lat: 11.4903
  lon: 48.1443
  name: Pörtschacher Straße
- city: München
  id: 1606
  lat: 11.4888
  lon: 48.1409
  name: Willibaldplatz
- city: München
  id: 1608
  lat: 11.4816
  lon: 48.1416
  name: Lohensteinstraße
- city: München
  id: 1612
  lat: 11.4748
  lon: 48.1424
  name: Westbad
- city: München
  id: 1614
  lat: 11.4717
  lon: 48.1455
  name: Am Knie
- city: München
  id: 1618
  lat: 11.4653
  lon: 48.1462
  name: Offenbachstraße
- city: München
  id: 1622
  lat: 11.4592
  lon: 48.1463
  name: Pasinger Marienplatz
- city: München
  id: 1623
  lat: 11.458
  lon: 48.1437
  name: Engelbertstraße
- city: München
  id: 1624
  lat: 11.4613
  lon: 48.1467
  name: Rathaus Pasing
- city: München
  id: 1626
  lat: 11.457
  lon: 48.1401
  name: Planegger Straße
- city: München
  id: 1627
  lat: 11.4618
  lon: 48.1404
  name: Weinbergerstraße
- city: München
  id: 1628
  lat: 11.4611
  lon: 48.1374
  name: Siegmannstraße
- city: München
  id: 1629
  lat: 11.4549
  lon: 48.1383
  name: Kraillinger Weg
- city: München
  id: 1630
  lat: 11.4533
  lon: 48.1359
  name: Siedlung am Haidelweg
- city: München
  id: 1632
  lat: 11.4688
  lon: 48.1324
  name: Seeholzenweg
- city: München
  id: 1633
  lat: 11.4634
  lon: 48.1355
  name: Perlschneiderstraße
- city: München
  id: 1634
  lat: 11.4745
  lon: 48.1283
  name: Blumenau
- city: München
  id: 1636
  lat: 11.4795
  lon: 48.1294
  name: Silberdistelstraße
- city: München
  id: 1638
  lat: 11.483
  lon: 48.1301
  name: Willibaldstraße
- city: München
  id: 1642
  lat: 11.4836
  lon: 48.1336
  name: Sulzbeckstraße
- city: München
  id: 1643
  lat: 11.4801
  lon: 48.1374
  name: Fischer-von-Erlach-Straße
- city: München
  id: 1644
  lat: 11.4852
  lon: 48.1368
  name: Mitterfeldstraße
- city: München
  id: 1646
  lat: 11.4935
  lon: 48.1361
  name: Stroblstraße
- city: München
  id: 1648
  lat: 11.4969
  lon: 48.1437
  name: Pronnerplatz
- city: München
  id: 1652
  lat: 11.4896
  lon: 48.1299
  name: Hönigschmidplatz
- city: München
  id: 1654
  lat: 11.4942
  lon: 48.1286
  name: Menaristraße
- city: München
  id: 1656
  lat: 11.4983
  lon: 48.1316
  name: Guido-Schneble-Straße
- city: München
  id: 1662
  lat: 11.4541
  lon: 48.1482
  name: Scapinellistraße
- city: München
  id: 1664
  lat: 11.4531
  lon: 48.1456
  name: Krankenhaus Pasing
- city: München
  id: 1666
  lat: 11.4507
  lon: 48.1424
  name: Avenariusplatz
- city: München
  id: 1668
  lat: 11.4481
  lon: 48.1405
  name: Wehnerstraße
- city: München
  id: 1669
  lat: 11.4461
  lon: 48.1413
  name: Peslmüllerstraße
- city: München
  id: 1672
  lat: 11.4432
  lon: 48.1379
  name: Dachstraße
- city: München
  id: 1674
  lat: 11.4414
  lon: 48.1369
  name: Maria-Eich-Str.
- city: München
  id: 1682
  lat: 11.449
  lon: 48.1506
  name: Varnhagenstraße
- city: München
  id: 1683
  lat: 11.4542
  lon: 48.1508
  name: Volmstraße
- city: München
  id: 1700
  lat: 11.4278
  lon: 48.1546
  name: Leienfelsstraße
- city: München
  id: 1701
  lat: 11.4465
  lon: 48.146
  name: Betschartstraße
- city: München
  id: 1702
  lat: 11.4368
  lon: 48.1503
  name: Ravensburger Ring
- city: München
  id: 1703
  lat: 11.4447
  lon: 48.148
  name: Heimburgstraße
- city: München
  id: 1704
  lat: 11.4338
  lon: 48.1493
  name: Mainaustraße
- city: München
  id: 1706
  lat: 11.431
  lon: 48.1493
  name: Sipplinger Straße
- city: München
  id: 1708
  lat: 11.4257
  lon: 48.1485
  name: Wertheimer Straße
- city: München
  id: 1709
  lat: 11.4113
  lon: 48.1351
  name: Anton-Böck-Straße
- city: München
  id: 1710
  lat: 11.4138
  lon: 48.1538
  name: Aubing
- city: München
  id: 1711
  lat: 11.416
  lon: 48.1567
  name: Ubostraße
- city: München
  id: 1712
  lat: 11.4214
  lon: 48.1474
  name: Altenburgstraße
- city: München
  id: 1713
  lat: 11.4203
  lon: 48.1606
  name: Mariabrunner Straße
- city: München
  id: 1714
  lat: 11.4222
  lon: 48.1459
  name: Hohensteinstraße
- city: München
  id: 1715
  lat: 11.4233
  lon: 48.1614
  name: Kronwinkler Straße
- city: München
  id: 1716
  lat: 11.4251
  lon: 48.1405
  name: Veldensteinstraße
- city: München
  id: 1717
  lat: 11.4354
  lon: 48.1637
  name: Jaspersallee
- city: München
  id: 1718
  lat: 11.4144
  lon: 48.1465
  name: Wiesentfelser Straße
- city: München
  id: 1719
  lat: 11.4173
  lon: 48.1393
  name: Papinstraße
- city: München
  id: 1720
  lat: 11.441
  lon: 48.1493
  name: Westkreuz
- city: München
  id: 1721
  lat: 11.4104
  lon: 48.1455
  name: Ellis-Kaut-Straße
- city: München
  id: 1722
  lat: 11.4137
  lon: 48.1486
  name: Riesenburgstraße
- city: München
  id: 1724
  lat: 11.4131
  lon: 48.1505
  name: Kunreuthstraße
- city: München
  id: 1726
  lat: 11.4098
  lon: 48.1525
  name: Neuaubing West
- city: München
  id: 1727
  lat: 11.4687
  lon: 48.1404
  name: Benedikterstraße
- city: München
  id: 1728
  lat: 11.4206
  lon: 48.1497
  name: Plankenfelser Straße
- city: München
  id: 1730
  lat: 11.4238
  lon: 48.1428
  name: Neuaubing
- city: München
  id: 1732
  lat: 11.4185
  lon: 48.154
  name: Limesstraße
- city: München
  id: 1733
  lat: 11.4133
  lon: 48.1583
  name: Germeringer Weg
- city: München
  id: 1734
  lat: 11.415
  lon: 48.16
  name: Bergsonstraße
- city: München
  id: 1735
  lat: 11.4204
  lon: 48.1558
  name: Elisabeth-Jost-Straße
- city: München
  id: 1736
  lat: 11.4133
  lon: 48.1642
  name: Gilchinger Straße
- city: München
  id: 1737
  lat: 11.4351
  lon: 48.1444
  name: Überlinger Weg
- city: München
  id: 1738
  lat: 11.411
  lon: 48.1676
  name: Allinger Straße
- city: München
  id: 1739
  lat: 11.4229
  lon: 48.1565
  name: Joseph-Suder-Bogen
- city: München
  id: 1740
  lat: 11.4116
  lon: 48.1411
  name: Freiham
- city: München
  id: 1741
  lat: 11.4263
  lon: 48.1573
  name: Ilse-Fehling-Straße
- city: München
  id: 1742
  lat: 11.407
  lon: 48.1724
  name: Asmarstraße
- city: München
  id: 1743
  lat: 11.43
  lon: 48.1578
  name: Staufener Straße
- city: München
  id: 1744
  lat: 11.3984
  lon: 48.1797
  name: Sumpfmeisenweg
- city: München
  id: 1745
  lat: 11.4352
  lon: 48.1567
  name: Englburgstraße
- city: München
  id: 1746
  lat: 11.4035
  lon: 48.1763
  name: Ziegeleistraße
- city: München
  id: 1747
  lat: 11.4357
  lon: 48.1531
  name: Hellensteinstraße
- city: München
  id: 1748
  lat: 11.3968
  lon: 48.1753
  name: Federseestraße
- city: München
  id: 1749
  lat: 11.4406
  lon: 48.1521
  name: Tettnanger Straße
- city: München
  id: 1750
  lat: 11.3947
  lon: 48.1747
  name: Erlbachstraße
- city: München
  id: 1751
  lat: 11.4065
  lon: 48.152
  name: Hörweg
- city: München
  id: 1752
  lat: 11.3957
  lon: 48.1798
  name: Pirolstraße
- city: München
  id: 1753
  lat: 11.4049
  lon: 48.1493
  name: Otto-Meitinger-Straße
- city: München
  id: 1754
  lat: 11.3912
  lon: 48.1813
  name: Krähenweg
- city: München
  id: 1755
  lat: 11.4079
  lon: 48.1425
  name: Helmut-Schmidt-Allee
- city: München
  id: 1756
  lat: 11.3906
  lon: 48.1739
  name: Eichelhäherstraße
- city: München
  id: 1757
  lat: 11.4031
  lon: 48.1412
  name: Bildungscampus Freiham
- city: München
  id: 1758
  lat: 11.4091
  lon: 48.1382
  name: Clarita-Bernhard-Straße
- city: München
  id: 1759
  lat: 11.4144
  lon: 48.1415
  name: Ehrenbürgstraße
- city: München
  id: 1762
  lat: 11.411
  lon: 48.1349
  name: Hans-Steinkohl-Straße
- city: München
  id: 1765
  lat: 11.413
  lon: 48.1342
  name: Freiham Möbel Höffner
- city: München
  id: 1766
  lat: 11.4645
  lon: 48.1681
  name: Karwinskistraße West
- city: München
  id: 1767
  lat: 11.4646
  lon: 48.172
  name: Benderstraße
- city: München
  id: 1768
  lat: 11.4669
  lon: 48.1736
  name: Im Wismat
- city: München
  id: 1769
  lat: 11.4695
  lon: 48.1737
  name: Thuillestraße
- city: München
  id: 1770
  lat: 11.4728
  lon: 48.1748
  name: Bauseweinallee
- city: München
  id: 1771
  lat: 11.4741
  lon: 48.1717
  name: Stücklenstraße
- city: München
  id: 1772
  lat: 11.4745
  lon: 48.1695
  name: Heerstraße West
- city: München
  id: 1773
  lat: 11.4754
  lon: 48.1681
  name: Karwinskistraße Ost
- city: München
  id: 1793
  lat: 11.4132
  lon: 48.1985
  name: Langwieder See
- city: München
  id: 1794
  lat: 11.4111
  lon: 48.1985
  name: Campingplatz Langwieder See
- city: München
  id: 1796
  lat: 11.4623
  lon: 48.1505
  name: Pasing Bf Nord
- city: München
  id: 1797
  lat: 11.4668
  lon: 48.1541
  name: Orthstraße
- city: München
  id: 1798
  lat: 11.467
  lon: 48.1572
  name: Marsopstraße
- city: München
  id: 1799
  lat: 11.4671
  lon: 48.1612
  name: Menterstraße
- city: München
  id: 1800
  lat: 11.4323
  lon: 48.163
  name: Langwied
- city: München
  id: 1801
  lat: 11.456
  lon: 48.1532
  name: Marschnerstraße
- city: München
  id: 1802
  lat: 11.4502
  lon: 48.1574
  name: Rubensstraße
- city: München
  id: 1803
  lat: 11.446
  lon: 48.1604
  name: Polkostraße
- city: München
  id: 1804
  lat: 11.4431
  lon: 48.1638
  name: Alte Allee
- city: München
  id: 1805
  lat: 11.4481
  lon: 48.1644
  name: Friedhof Obermenzing
- city: München
  id: 1806
  lat: 11.453
  lon: 48.1651
  name: Bertha-von-Suttner-Weg
- city: München
  id: 1807
  lat: 11.4568
  lon: 48.1652
  name: Blutenburg
- city: München
  id: 1808
  lat: 11.4631
  lon: 48.1648
  name: Wöhlerstraße
- city: München
  id: 1809
  lat: 11.4673
  lon: 48.1648
  name: Dorfstraße
- city: München
  id: 1810
  lat: 11.4075
  lon: 48.1774
  name: Lochhausen
- city: München
  id: 1811
  lat: 11.4733
  lon: 48.1646
  name: Sarasatestraße
- city: München
  id: 1812
  lat: 11.4547
  lon: 48.1643
  name: Schloss Blutenburg
- city: München
  id: 1813
  lat: 11.4485
  lon: 48.1627
  name: Rüttenauerplatz
- city: München
  id: 1814
  lat: 11.463
  lon: 48.1772
  name: Von-Kahr-Straße
- city: München
  id: 1815
  lat: 11.4467
  lon: 48.175
  name: Campingplatz Obermenzing
- city: München
  id: 1816
  lat: 11.457
  lon: 48.1695
  name: Lochhausener Straße
- city: München
  id: 1817
  lat: 11.4602
  lon: 48.1728
  name: Steirerstraße
- city: München
  id: 1818
  lat: 11.4617
  lon: 48.1779
  name: Friedhof Untermenzing
- city: München
  id: 1819
  lat: 11.4613
  lon: 48.1795
  name: Pfarrer-Grimm-Straße
- city: München
  id: 1820
  lat: 11.4681
  lon: 48.1775
  name: Willi-Wien-Straße
- city: München
  id: 1821
  lat: 11.46
  lon: 48.1855
  name: Esmarchstraße
- city: München
  id: 1822
  lat: 11.4607
  lon: 48.1887
  name: Vesaliusstraße
- city: München
  id: 1823
  lat: 11.4664
  lon: 48.1918
  name: St.-Johann-Straße
- city: München
  id: 1824
  lat: 11.4618
  lon: 48.194
  name: Höcherstraße
- city: München
  id: 1825
  lat: 11.4614
  lon: 48.1961
  name: Franz-Nißl-Straße
- city: München
  id: 1826
  lat: 11.458
  lon: 48.199
  name: Kleselstraße
- city: München
  id: 1828
  lat: 11.4578
  lon: 48.2061
  name: Otto-Warburg-Straße
- city: München
  id: 1829
  lat: 11.4565
  lon: 48.1947
  name: Servetstraße
- city: München
  id: 1830
  lat: 11.4459
  lon: 48.18
  name: Gerlachweg
- city: München
  id: 1831
  lat: 11.4516
  lon: 48.192
  name: Hauseggerstraße
- city: München
  id: 1832
  lat: 11.4455
  lon: 48.1862
  name: Riederstraße
- city: München
  id: 1833
  lat: 11.4445
  lon: 48.1821
  name: Brückestraße
- city: München
  id: 1834
  lat: 11.4469
  lon: 48.1832
  name: Pasinger Heuweg
- city: München
  id: 1835
  lat: 11.4444
  lon: 48.2006
  name: Augustenfelder Straße
- city: München
  id: 1836
  lat: 11.4478
  lon: 48.2002
  name: Karl-Hänel-Straße
- city: München
  id: 1837
  lat: 11.453
  lon: 48.2012
  name: Pregerstraße
- city: München
  id: 1838
  lat: 11.4499
  lon: 48.1812
  name: Auenbruggerstraße
- city: München
  id: 1839
  lat: 11.4595
  lon: 48.1913
  name: Eversbuschstraße
- city: München
  id: 1840
  lat: 11.464
  lon: 48.1943
  name: Georg-Reismüller-Straße
- city: München
  id: 1841
  lat: 11.4691
  lon: 48.1501
  name: Nusselstraße
- city: München
  id: 1842
  lat: 11.4705
  lon: 48.1547
  name: Sibeliusstraße
- city: München
  id: 1844
  lat: 11.475
  lon: 48.1507
  name: Schmaedelstraße
- city: München
  id: 1846
  lat: 11.4765
  lon: 48.1531
  name: Peter-Anders-Straße
- city: München
  id: 1847
  lat: 11.4786
  lon: 48.1564
  name: Paul-Gerhardt-Allee
- city: München
  id: 1848
  lat: 11.4782
  lon: 48.161
  name: Am Durchblick
- city: München
  id: 1849
  lat: 11.472
  lon: 48.1501
  name: Josef-Lang-Straße
- city: München
  id: 1851
  lat: 11.443
  lon: 48.1772
  name: Goteboldstraße
- city: München
  id: 1852
  lat: 11.4368
  lon: 48.1764
  name: Paulaner Brauerei
- city: München
  id: 1853
  lat: 11.4242
  lon: 48.1812
  name: Langwied Ortsmitte
- city: München
  id: 1854
  lat: 11.4181
  lon: 48.1796
  name: Osterangerstraße
- city: München
  id: 1855
  lat: 11.4078
  lon: 48.1797
  name: Eschenrieder Straße
- city: München
  id: 1856
  lat: 11.4731
  lon: 48.1938
  name: Krauss-Maffei-Straße Ost
- city: München
  id: 1857
  lat: 11.4708
  lon: 48.1936
  name: Krauss-Maffei-Straße
- city: München
  id: 1858
  lat: 11.4766
  lon: 48.1502
  name: Erna-Eckstein-Straße
- city: München
  id: 1859
  lat: 11.4798
  lon: 48.1516
  name: Berduxstraße
- city: München
  id: 1900
  lat: 11.4786
  lon: 48.1642
  name: Obermenzing
- city: München
  id: 1901
  lat: 11.4762
  lon: 48.1638
  name: Frauendorferstraße
- city: München
  id: 1902
  lat: 11.4812
  lon: 48.164
  name: Freseniusstraße
- city: München
  id: 1904
  lat: 11.4874
  lon: 48.1672
  name: Fasanenstraße
- city: München
  id: 1906
  lat: 11.4847
  lon: 48.169
  name: Reginbaldstraße
- city: München
  id: 1908
  lat: 11.4819
  lon: 48.1708
  name: Heerstraße
- city: München
  id: 1910
  lat: 11.467
  lon: 48.1898
  name: Allach
- city: München
  id: 1911
  lat: 11.4685
  lon: 48.1928
  name: Allach Bahnhof Ost
- city: München
  id: 1912
  lat: 11.4772
  lon: 48.1739
  name: Kunstmannstraße
- city: München
  id: 1914
  lat: 11.4746
  lon: 48.176
  name: Finsterwalderstraße
- city: München
  id: 1916
  lat: 11.4747
  lon: 48.1794
  name: Karl-von-Roth-Straße
- city: München
  id: 1918
  lat: 11.4726
  lon: 48.1829
  name: Krautheimstraße
- city: München
  id: 1921
  lat: 11.4753
  lon: 48.1816
  name: Von-Reuter-Straße
- city: München
  id: 1922
  lat: 11.4829
  lon: 48.1803
  name: Penzoltstraße
- city: München
  id: 1924
  lat: 11.4785
  lon: 48.1835
  name: Korbinian-Beer-Straße
- city: München
  id: 1926
  lat: 11.484
  lon: 48.1834
  name: Gruithuisenstraße
- city: München
  id: 1928
  lat: 11.489
  lon: 48.184
  name: Manzostraße
- city: München
  id: 1930
  lat: 11.4743
  lon: 48.1778
  name: Untermenzing
- city: München
  id: 1931
  lat: 11.4807
  lon: 48.1781
  name: Zaunerstraße
- city: München
  id: 1932
  lat: 11.4897
  lon: 48.1795
  name: Waldhornstraße
- city: München
  id: 1934
  lat: 11.4948
  lon: 48.1781
  name: Untermenzinger Straße
- city: München
  id: 1936
  lat: 11.4961
  lon: 48.1792
  name: Lauinger Straße
- city: München
  id: 1938
  lat: 11.4957
  lon: 48.182
  name: Dillinger Straße
- city: München
  id: 1942
  lat: 11.501
  lon: 48.1836
  name: Ohlauer Straße
- city: München
  id: 1943
  lat: 11.4964
  lon: 48.1841
  name: Donauwörther Straße
- city: München
  id: 1944
  lat: 11.4721
  lon: 48.1871
  name: Hortigstraße
- city: München
  id: 1945
  lat: 11.4725
  lon: 48.1848
  name: Rueßstraße
- city: München
  id: 1946
  lat: 11.4725
  lon: 48.1891
  name: Angerlohstraße
- city: München
  id: 1948
  lat: 11.4735
  lon: 48.1915
  name: Tubeufstraße
- city: München
  id: 1956
  lat: 11.4676
  lon: 48.2135
  name: Vogelloh
- city: München
  id: 1958
  lat: 11.4815
  lon: 48.2108
  name: Allacher Forstweg
- city: München
  id: 1962
  lat: 11.5041
  lon: 48.186
  name: Eininger Straße
- city: München
  id: 1963
  lat: 11.5022
  lon: 48.1918
  name: Max-Born-Straße
- city: München
  id: 1964
  lat: 11.4943
  lon: 48.2025
  name: Ferchenbachstraße
- city: München
  id: 1965
  lat: 11.4956
  lon: 48.1945
  name: Rangierbahnhof
- city: München
  id: 1967
  lat: 11.5033
  lon: 48.1883
  name: Haylerstraße
- city: München
  id: 1968
  lat: 11.4846
  lon: 48.2128
  name: Kristallstraße
- city: München
  id: 1969
  lat: 11.4894
  lon: 48.2173
  name: Siedlung Ludwigsfeld
- city: München
  id: 1971
  lat: 11.4891
  lon: 48.2167
  name: Achatstraße
- city: München
  id: 1973
  lat: 11.518
  lon: 48.2183
  name: Feldmochinger See
- city: München
  id: 1974
  lat: 11.4866
  lon: 48.2161
  name: Opalstraße
- city: München
  id: 1975
  lat: 11.4829
  lon: 48.2183
  name: MAN, Siedlung
- city: München
  id: 1976
  lat: 11.4808
  lon: 48.2163
  name: Karlsfelder Straße
- city: München
  id: 1978
  lat: 11.5086
  lon: 48.2163
  name: Kaiserhölzlstraße
- city: München
  id: 1979
  lat: 11.5249
  lon: 48.2181
  name: Schwarzhölzlstraße
- city: München
  id: 1981
  lat: 11.529
  lon: 48.2172
  name: Grashofstraße
- city: München
  id: 1982
  lat: 11.5334
  lon: 48.2076
  name: Faganastraße
- city: München
  id: 1983
  lat: 11.5307
  lon: 48.2111
  name: Bergwachtstraße
- city: München
  id: 1984
  lat: 11.5307
  lon: 48.2152
  name: Josef-Frankl-Straße
- city: München
  id: 1986
  lat: 11.5349
  lon: 48.2146
  name: Lerchenstraße
- city: München
  id: 5000
  lat: 11.5592
  lon: 48.1393
  name: Hauptbahnhof Süd
- city: München
  id: 7000
  lat: 11.5608
  lon: 48.1412
  name: Hauptbahnhof Nord
- city: München
  id: 8019
  lat: 11.6016
  lon: 48.1036
  name: MVG-Museum
- city: München
  id: 8888
  lat: 11.5416
  lon: 48.1707
  name: Olympiapark Parkharfe
- city: München
  id: 8888
  lat: 11.5416
  lon: 48.1707
  name: Toni-Merkens-Weg
- city: München
  id: 9015
  lat: 11.5547
  lon: 48.1679
  name: Spiridon-Louis-Ring
- city: München
  id: 9029
  lat: 11.5492
  lon: 48.1692
  name: Olympiaberg
- city: München
  id: 9029
  lat: 11.5492
  lon: 48.1692
  name: Tollwood
- city: München
  id: 9751
  lat: 11.5599
  lon: 48.1772
  name: Dostlerstraße
- city: München
  id: 9752
  lat: 11.5632
  lon: 48.1822
  name: Riesenfeldstraße / Tor 5
- city: München
  id: 9753
  lat: 11.5699
  lon: 48.1893
  name: IT-Zentrum
- city: München
  id: 9755
  lat: 11.5814
  lon: 48.1907
  name: Anton-Ditt-Bogen
- city: München
  id: 9756
  lat: 11.602
  lon: 48.2001
  name: Heidemannstr. 164
- city: München
  id: 9758
  lat: 11.6067
  lon: 48.1937
  name: Freimann (Auslieferung)
- city: München
  id: 9760
  lat: 11.5573
  lon: 48.1855
  name: Moosacher Str. 51
- city: München
  id: 9761
  lat: 11.5739
  lon: 48.189
  name: Lauchstädter Straße
- city: München
  id: 9766
  lat: 11.5784
  lon: 48.1889
  name: Taunusstraße
- city: München
  id: 9767
  lat: 11.5545
  lon: 48.1921
  name: BTZ Lemgostraße
- city: München
  id: 9952
  lat: 11.5137
  lon: 48.1388
  name: Siglstraße Nord
