HstNummer,Name,Ort,Lon,Lat
1,Karlsplatz_(Stachus),München,48.1394,11.5654
2,Marienplatz,München,48.1364,11.5777
3,Isartor,München,48.1339,11.5828
4,Rosenheimer_Platz,München,48.1286,11.5939
5,Ostbahnhof,München,48.1281,11.6041
6,Hauptbahnhof,München,48.1403,11.5611
7,Hackerbrücke,München,48.1435,11.5488
8,Donnersbergerbrücke,München,48.1427,11.5346
9,Laim,München,48.1431,11.5032
10,Pasing,München,48.1488,11.4606
11,Leonrodplatz,München,48.1595,11.5474
12,Hochschule_München_(Lothstr.),München,48.1543,11.5538
13,Sandstraße,München,48.1506,11.5581
15,Karlstraße,München,48.1448,11.5596
16,Lenbachplatz,München,48.1409,11.5683
17,Nationaltheater,München,48.1394,11.5786
18,Kammerspiele,München,48.1385,11.5831
19,Maxmonument,München,48.1376,11.5881
20,Marienplatz_(Theatinerstr.),München,48.1395,11.5753
20,Theatinerstraße,München,48.1395,11.5753
21,Maximilianeum,München,48.1361,11.596
22,Flurstraße,München,48.1356,11.6048
23,Grillparzerstraße,München,48.1363,11.6091
25,Alter_Messeplatz,München,48.1346,11.5463
26,Isartor/Zweibrückenstraße,München,48.1328,11.5836
27,Ridlerstraße,München,48.1307,11.5392
29,Landshuter_Allee,München,48.1517,11.5369
30,Poccistraße,München,48.1251,11.5496
31,Hirschgarten,München,48.1435,11.5195
32,Hochschule_München,München,48.1554,11.5533
34,Nordbad,München,48.1609,11.5634
35,Görresstraße,München,48.156,11.5622
36,Georgenstraße,München,48.1552,11.5835
38,Müllerstraße,München,48.1314,11.5715
40,Goetheplatz,München,48.1295,11.5584
41,Eduard-Schmid-Straße,München,48.1263,11.5784
42,Mariahilfplatz,München,48.1244,11.5811
43,Kurfürstenplatz,München,48.1603,11.575
44,Winzererstraße,München,48.1577,11.5601
45,Infanteriestraße_Süd,München,48.1565,11.5589
46,Haidenauplatz,München,48.1324,11.6101
47,Elisabethplatz,München,48.1576,11.575
48,Nordendstraße,München,48.1549,11.5754
49,Schellingstraße,München,48.151,11.5733
50,Sendlinger_Tor,München,48.1333,11.5664
51,Pinakotheken,München,48.148,11.5713
52,Karolinenplatz,München,48.1454,11.5696
53,Ottostraße,München,48.1423,11.5678
54,Donnersbergerstraße,München,48.1463,11.5359
55,Hermann-Lingg-Straße,München,48.139,11.5516
56,Georg-Hirth-Platz,München,48.1346,11.556
57,Beethovenplatz,München,48.1331,11.558
58,Kapuzinerplatz/_Arbeitsagentur,München,48.1268,11.5584
59,Kapuzinerstraße,München,48.1251,11.5619
60,Odeonsplatz,München,48.1429,11.5777
61,Baldeplatz,München,48.1234,11.5671
62,Claude-Lorrain-Straße,München,48.1211,11.5714
63,Humboldtstraße,München,48.1195,11.5753
64,Barthstraße,München,48.1403,11.5302
65,Trappentreustraße,München,48.14,11.5344
66,Schrenkstraße,München,48.1396,11.5413
67,Holzapfelstraße,München,48.1392,11.5471
68,Reichenbachplatz,München,48.1333,11.5766
69,Deutsches_Museum,München,48.1319,11.5861
70,Universität,München,48.149,11.5805
71,Am_Gasteig,München,48.1328,11.5916
72,Wiener_Platz,München,48.1341,11.5958
73,Friedensengel/Villa_Stuck,München,48.1407,11.6001
74,Holbeinstraße,München,48.1432,11.6013
75,Sternwartstraße,München,48.1461,11.6033
76,Herkomerplatz,München,48.1509,11.6089
77,Mauerkircherstraße,München,48.1488,11.6008
78,Tivolistraße,München,48.1501,11.5966
79,Paradiesstraße,München,48.1463,11.593
80,Giselastraße,München,48.1571,11.5849
81,Nationalmuseum/Haus_d.Kunst,München,48.1431,11.5885
82,Astallerstraße,München,48.1355,11.5305
83,Tumblingerstraße,München,48.1233,11.5538
84,Mariannenplatz,München,48.1352,11.5867
85,Kazmairstraße,München,48.135,11.534
86,Maxvorstadt/Sammlg._Brandhorst,München,48.1484,11.5743
87,Bergmannstraße,München,48.1349,11.5374
88,Wörthstraße,München,48.1321,11.5979
89,Orleansstraße,München,48.1253,11.5995
90,Holzkirchner_Bahnhof,München,48.1392,11.5559
91,Bundesfinanzhof,München,48.1482,11.6055
92,Kustermannpark,München,48.1242,11.6013
93,Tal,München,48.136,11.5794
95,Technische_Universität,München,48.1483,11.5654
96,Klenzestraße,München,48.1253,11.5707
97,Amalienstraße,München,48.1478,11.5764
100,Hauptbahnhof_(Gl._5-36),München,48.1412,11.5589
101,Hans-Fischer-Straße,München,48.1274,11.5447
102,Gollierplatz,München,48.1363,11.5343
103,Schlörstraße,München,48.1499,11.5368
104,Albrechtstraße,München,48.1557,11.5404
105,Fasaneriestraße,München,48.1573,11.5435
106,Infanteriestraße,München,48.1615,11.5537
107,Barbarastraße,München,48.1614,11.5574
108,Hohenzollernstraße,München,48.1592,11.5853
109,Friedrichstraße,München,48.1599,11.5806
110,Königsplatz,München,48.1462,11.564
111,Regerplatz,München,48.1249,11.589
112,Viktualienmarkt,München,48.1351,11.5749
113,Blumenstraße,München,48.1332,11.574
114,Gärtnerplatztheater,München,48.1322,11.5752
115,Baaderstraße,München,48.13,11.5784
116,Schweigerstraße,München,48.1267,11.583
117,Taubenstraße,München,48.1219,11.5789
118,Kirchenstraße,München,48.1331,11.605
119,Boschbrücke,München,48.131,11.5824
120,Theresienstraße,München,48.1512,11.5643
121,Reitmorstraße/Sammlung_Schack,München,48.142,11.5937
122,Ludwigsbrücke,München,48.1327,11.5853
123,Königinstraße,München,48.1438,11.585
124,Von-der-Tann-Straße,München,48.1453,11.5788
125,Türkenstraße,München,48.1503,11.576
126,Arcisstraße,München,48.1518,11.5707
127,Luisenstraße,München,48.1525,11.5681
128,Augustenstraße,München,48.1531,11.5659
129,Roecklplatz,München,48.1207,11.5616
130,Josephsplatz,München,48.1548,11.5663
131,St.-Jakobs-Platz,München,48.1353,11.5726
132,Hirschauer_Straße,München,48.1506,11.5953
133,Galileiplatz,München,48.1442,11.6066
134,Wehrlestraße,München,48.1482,11.6081
135,Chinesischer_Turm,München,48.1528,11.5934
136,Thiemestraße,München,48.1566,11.5887
137,Am_Tucherpark,München,48.1528,11.5991
138,Schwester-Eubulina-Platz,München,48.1235,11.5932
139,Auerfeldstraße,München,48.1236,11.5962
140,Hohenzollernplatz,München,48.1612,11.568
141,Stephansplatz,München,48.1308,11.5658
142,Maistraße,München,48.1294,11.5621
143,Waltherstraße,München,48.1275,11.5638
144,Zenettistraße,München,48.1225,11.5591
145,ZOB,München,48.1424,11.5499
146,Ehrengutstraße,München,48.1214,11.5573
150,Fraunhoferstraße,München,48.1279,11.5762
151,Corneliusbrücke,München,48.1293,11.5793
152,Aurbacherstraße,München,48.1224,11.5903
153,Dom-Pedro-Straße,München,48.1597,11.5375
156,Elisenstraße,München,48.1424,11.5616
157,Nymphenburg_Süd,München,48.1463,11.5024
158,Hubertusbrunnen,München,48.1592,11.5301
159,Kolumbusplatz_(Nord),München,48.1206,11.5766
160,Kolumbusplatz,München,48.1191,11.5765
161,St.-Cajetan-Straße,München,48.1214,11.599
162,Kolumbusplatz/Humboldtstraße,München,48.1192,11.5758
163,Volkartstraße_Ost,München,48.1563,11.5375
164,Hanebergstraße,München,48.1626,11.5374
166,Marienplatz_(Rindermarkt),München,48.1356,11.5737
166,Marienplatz_Süd,München,48.1356,11.5737
170,Stiglmaierplatz,München,48.1471,11.5588
180,Maillingerstraße,München,48.1503,11.5446
185,Gaiglstraße,München,48.1524,11.5505
190,Rotkreuzplatz,München,48.153,11.5335
197,Oskar-von-Miller-Ring,München,48.1454,11.5755
200,Westfriedhof,München,48.1693,11.5284
201,Dantebad,München,48.1665,11.5275
202,Klugstraße,München,48.1642,11.529
203,St.-Galler-Straße,München,48.1597,11.5304
204,Neuhausen,München,48.1564,11.5314
205,Volkartstraße,München,48.1551,11.5326
206,Sadelerstraße,München,48.1686,11.5224
207,Winthirplatz,München,48.1519,11.5279
209,Dankwartstraße,München,48.1514,11.5237
210,Amalienburgstraße,München,48.1656,11.4932
211,Botanischer_Garten,München,48.1645,11.5026
212,Maria-Ward-Straße,München,48.1637,11.507
213,Dall'Armistraße,München,48.1614,11.5113
214,Schloss_Nymphenburg,München,48.1585,11.5115
215,Romanplatz,München,48.1556,11.5116
216,Steubenplatz,München,48.1501,11.5203
217,Briefzentrum,München,48.149,11.5244
218,Burghausener_Straße,München,48.1473,11.5296
219,Kriemhildenstraße,München,48.1522,11.5154
220,Renatastraße,München,48.1566,11.5266
221,Hubertusstraße,München,48.156,11.5199
222,Marsstraße,München,48.145,11.5419
223,Deroystraße,München,48.1442,11.5454
224,Mettenstraße,München,48.1682,11.5145
225,Herthastraße,München,48.1493,11.5033
226,Kemnatenstraße,München,48.1513,11.5042
227,Hirschgartenallee,München,48.1529,11.5081
228,Nederlinger_Straße,München,48.17,11.5107
229,Netzerstraße,München,48.1761,11.507
230,Skagerrakstraße,München,48.1727,11.5045
231,Baubergerstraße,München,48.1771,11.506
232,Hopfenstraße,München,48.1424,11.5544
233,Amphionpark,München,48.1734,11.5151
234,Schragenhofstraße,München,48.1725,11.5022
235,Lustheimstraße,München,48.1638,11.486
236,In_den_Kirschen,München,48.1672,11.5095
237,Bunzlauer_Platz,München,48.1792,11.5071
238,Winfriedstraße,München,48.1474,11.5033
239,Nederlinger_Straße_(West),München,48.1707,11.5089
240,Theresienwiese,München,48.1357,11.5522
250,Schwanthalerhöhe,München,48.1335,11.5397
251,Theresienhöhe,München,48.1326,11.546
260,Westendstraße,München,48.1344,11.5227
270,Friedenheimer_Straße,München,48.1351,11.5114
280,Laimer_Platz,München,48.1355,11.503
285,Stadtwerke_München,München,48.1712,11.5306
290,Olympiasee,München,48.1715,11.546
291,Sapporobogen,München,48.1694,11.5376
292,Angererstraße,München,48.1675,11.5705
293,Georg-Birk-Straße,München,48.164,11.557
294,Ackermannbogen,München,48.165,11.5562
295,Olympiapark_Süd,München,48.1623,11.5519
296,Deidesheimer_Straße,München,48.1686,11.5594
299,Margarete-Steiff-Straße,München,48.1802,11.5
300,Moosach,München,48.1804,11.5074
301,Pelkovenstraße,München,48.1811,11.5115
302,Hugo-Troendle-Straße,München,48.1793,11.5148
303,Wintrichring,München,48.1758,11.522
304,Hanauer_Straße,München,48.1725,11.5282
305,Borstei,München,48.1697,11.533
306,Olympiapark_West,München,48.1659,11.5379
307,Heideckstraße,München,48.1629,11.5422
307,Goethe-Institut,München,48.1629,11.5422
308,Gartenstraße,München,48.1723,11.5649
309,Ackermannstraße,München,48.1679,11.5649
310,Fasanerie,München,48.1969,11.5245
311,Herzogstraße,München,48.1635,11.5642
312,Georg-Brauchle-Ring,München,48.1764,11.5291
313,Ehrenbreitsteiner_Straße,München,48.1873,11.5287
314,Riesstraße,München,48.1847,11.533
316,Bingener_Straße,München,48.1822,11.5212
318,Olympia-Einkaufszentrum_West,München,48.184,11.5314
319,Olympia-Einkaufszentrum_Ost,München,48.1832,11.5368
320,Feldmoching,München,48.2139,11.5403
321,Olympia-Pressestadt,München,48.1798,11.5368
322,Lassallestraße,München,48.1871,11.5336
323,Olympiapark_Nord,München,48.1863,11.5418
324,Lerchenauer_Straße,München,48.186,11.5517
325,Olympiapark_Eissportstadion,München,48.1761,11.5598
326,Curt-Mezger-Platz,München,48.1813,11.5669
328,Andernacher_Straße,München,48.1856,11.5246
329,Anhalter_Platz,München,48.1868,11.5622
330,Gärtnerstraße,München,48.1773,11.5363
331,Moosacher_Straße,München,48.1872,11.5661
332,Olympia-Einkaufszentrum_Süd,München,48.1822,11.5321
333,Dessauerstraße,München,48.1807,11.5317
334,Milbertshofener_Platz,München,48.1845,11.5665
335,Schopenhauerstraße,München,48.1794,11.5639
336,Lüneburger_Straße,München,48.1827,11.5631
337,Detmoldstraße,München,48.1924,11.5654
338,Schittgablerstraße,München,48.1914,11.549
340,Petuelring,München,48.1755,11.5666
341,Himmelschlüsselstraße,München,48.1955,11.5349
342,Lerchenauer_See,München,48.1979,11.5356
343,Max-Wönner-Straße,München,48.1994,11.5357
344,Franz-Sperr-Weg,München,48.2039,11.5391
345,Gneisenaustraße,München,48.1786,11.5304
346,Paidarstraße,München,48.2148,11.5449
347,Hasenbergl_(Rainfarnstr.),München,48.2136,11.5532
349,Stanigplatz,München,48.2166,11.5532
350,Olympiazentrum,München,48.1787,11.5567
351,Stösserstraße,München,48.2198,11.5571
352,Irisstraße,München,48.1967,11.5457
353,Robinienstraße,München,48.2006,11.5431
354,Goldlackplatz,München,48.2002,11.5502
355,Gundermannstraße,München,48.2042,11.5526
356,Hasenbergl_Süd,München,48.2083,11.5525
357,Ittlingerstraße,München,48.2083,11.5557
358,Hasenberglstraße,München,48.2071,11.5603
359,Feldmochinger_Anger,München,48.2091,11.5439
360,Olympia-Einkaufszentrum,München,48.182,11.5295
362,Ratkisstraße,München,48.2104,11.5561
363,Pulverturmstraße,München,48.2018,11.5535
366,Gröbenzeller_Straße,München,48.1831,11.5079
368,Feldmoching_Bahnhof_Ost,München,48.2138,11.5432
369,Riesstraße_Süd,München,48.1763,11.5363
370,Moosacher_St.-Martins-Platz,München,48.1818,11.5173
376,Merseburger_Straße,München,48.186,11.5211
377,Claudiusplatz,München,48.182,11.5254
380,Oberwiesenfeld,München,48.1862,11.5457
381,Ludwigsfeld_(Campingplatz),München,48.1993,11.4971
382,Am_Blütenanger,München,48.2018,11.5064
383,Pappelallee,München,48.2005,11.5127
384,Sonnentaustraße,München,48.1992,11.5185
385,Kuckucksblumenstraße,München,48.1989,11.5224
396,Frauenmantelanger,München,48.2094,11.5682
397,Pulverturm,München,48.1961,11.5649
398,Scheidplatz_Süd,München,48.1703,11.5737
399,Olschewskibogen,München,48.2002,11.559
400,Scheidplatz,München,48.1715,11.5727
401,Augustin-Rösch-Straße,München,48.2013,11.5642
402,Röblingweg,München,48.205,11.5728
403,Feuchtwangerstraße,München,48.2078,11.5677
404,Trenkleweg,München,48.21,11.5717
405,Weitlstraße,München,48.2088,11.5632
406,Dientzenhoferstraße,München,48.2034,11.5772
407,Abtstraße,München,48.1842,11.5787
408,Weyprechtstraße,München,48.2047,11.5638
409,Rathenaustraße,München,48.2004,11.5735
410,Bonner_Platz,München,48.1669,11.5785
413,Siedlung_am_Hart,München,48.2012,11.5769
414,Sudetendeutsche_Straße,München,48.1962,11.5784
415,Euro-Industriepark_West,München,48.1926,11.584
416,Oberhofer_Platz,München,48.1876,11.5758
417,Milbertshofener_Straße,München,48.1844,11.5754
418,Mildred-Scheel-Bogen,München,48.1753,11.5818
419,Rümannstraße,München,48.1756,11.5728
420,Freimann,München,48.1924,11.6145
421,Karl-Theodor-Straße,München,48.1668,11.574
422,Clemensstraße,München,48.1635,11.5746
423,Griegstraße,München,48.1817,11.5849
424,Klopstockstraße,München,48.1761,11.5793
425,Domagkstraße_West,München,48.1843,11.5846
426,Ingolstädter_Straße,München,48.1879,11.5844
427,Funkkaserne_West,München,48.1877,11.5946
427,Max-Bill-Straße,München,48.1877,11.5946
428,Lilienthalallee_Süd,München,48.1869,11.6025
428,Funkkaserne,München,48.1869,11.6025
429,Joseph-Dollinger-Bogen,München,48.1864,11.6066
429,Autobahn_Nord,München,48.1864,11.6066
430,Kieferngarten,München,48.2027,11.6125
431,Heckscherstraße,München,48.1724,11.5824
432,Wilhelm-Hertz-Straße,München,48.176,11.5854
433,Parzivalplatz,München,48.1711,11.5859
434,Potsdamer_Straße,München,48.1673,11.5862
435,Kölner_Platz,München,48.1701,11.5774
436,Neuherbergstraße,München,48.2104,11.5871
437,Anton-Will-Straße,München,48.2057,11.5862
438,Heidemannstraße,München,48.201,11.5853
439,Gundelkoferstraße,München,48.1959,11.5843
440,Werner-Egk-Bogen,München,48.2015,11.598
441,Paracelsusstraße,München,48.2013,11.5895
442,Grusonstraße,München,48.2017,11.5934
443,Euro-Industriepark_Nord,München,48.2009,11.6026
444,Paul-Hindemith-Allee,München,48.2005,11.6057
445,Bernsteinweg,München,48.2009,11.6118
446,Rockefellerstraße,München,48.2107,11.5753
447,Rose-Pichler-Weg,München,48.2108,11.5821
448,Alfred-Arndt-Straße,München,48.183,11.5967
448,Gertrud-Grunow-Straße,München,48.183,11.5967
449,Untere_Länge,München,48.2058,11.5942
451,Kollwitzstraße,München,48.1982,11.5848
452,Pündterplatz,München,48.1626,11.5768
453,Keilberthstraße,München,48.2053,11.5996
454,Gustav-Mahler-Straße,München,48.2022,11.6031
455,Bismarckstraße,München,48.1625,11.5823
457,Zaunweg,München,48.1807,11.6013
458,Freiligrathstraße,München,48.1782,11.5852
459,Schwabinger_Tor,München,48.1727,11.5864
464,Edmund-Rumpler-Straße,München,48.1951,11.6089
465,Lindberghstraße,München,48.1917,11.6058
466,Freimanner_Hölzl,München,48.192,11.6013
470,Fröttmaning,München,48.2116,11.6166
500,Münchner_Freiheit,München,48.1619,11.5863
501,Am_Münchner_Tor,München,48.1761,11.5883
502,Domagkstraße,München,48.1842,11.5904
503,Schwabing_Nord,München,48.1875,11.5912
510,Dietlindenstraße,München,48.1666,11.5903
511,Osterwaldstraße,München,48.1634,11.5963
512,Herzogpark,München,48.1561,11.6071
513,Barlachstraße,München,48.1775,11.5756
518,Amsterdamer_Straße,München,48.1696,11.5992
520,Nordfriedhof,München,48.1734,11.5974
530,Alte_Heide,München,48.1795,11.6039
540,Studentenstadt,München,48.1833,11.608
541,Situlistraße,München,48.1901,11.6155
542,Floriansmühlstraße,München,48.1916,11.621
543,Emmerigweg,München,48.1954,11.6241
544,Josef-Wirth-Weg,München,48.199,11.6263
545,Großlappen,München,48.2044,11.6295
546,Wallnerstraße,München,48.2104,11.6333
547,Fröttmaning_Auensiedlung,München,48.2146,11.6355
548,Bayerischer_Rundfunk,München,48.1901,11.6274
550,Kufsteiner_Platz,München,48.1502,11.6022
551,Redwitzstraße,München,48.1555,11.6086
552,Gustav-Freytag-Straße,München,48.1588,11.6119
553,Gellertstraße,München,48.1626,11.6152
554,Rümelinstraße,München,48.1664,11.6184
555,Poschingerstraße,München,48.1526,11.6059
556,Regina-Ullmann-Straße,München,48.1699,11.6351
557,Bichlhofweg,München,48.169,11.6434
560,Böhmerwaldplatz,München,48.1429,11.6154
570,Prinzregentenplatz,München,48.1393,11.607
580,Max-Weber-Platz,München,48.1357,11.5979
581,Max-Weber-Platz_(Johannispl.),München,48.1344,11.5981
590,Lehel,München,48.1396,11.5886
599,Grimmeisenstraße,München,48.1652,11.6447
600,St._Emmeram,München,48.176,11.6305
601,Fritz-Meyer-Weg,München,48.1725,11.6366
602,Johanneskirchner_Straße,München,48.1677,11.6436
603,Stegmühlstraße,München,48.1625,11.6451
604,Freischützstraße,München,48.1587,11.6421
605,Englschalkinger_Straße,München,48.1567,11.6418
606,Memeler_Straße,München,48.1532,11.6413
607,Zoppoter_Straße,München,48.1506,11.6407
608,Posener_Platz,München,48.1482,11.6405
609,Warthestraße,München,48.1463,11.6372
610,Vollmannstraße,München,48.1474,11.6283
611,Moselstraße,München,48.1418,11.6272
612,Vogelweideplatz,München,48.1373,11.6203
612,Steinhausen,München,48.1373,11.6203
613,Schwarzwaldstraße,München,48.1391,11.6288
615,Odinpark,München,48.158,11.6193
616,Daphnestraße,München,48.1481,11.6254
617,Priel,München,48.1609,11.6221
618,Effnerstraße,München,48.1631,11.624
619,Grüntal,München,48.1687,11.6215
620,Isarring,München,48.1538,11.6114
621,Mahirstraße,München,48.156,11.6139
622,Odinstraße,München,48.1586,11.6161
623,Wahnfriedallee,München,48.1619,11.6192
624,Lohengrinstraße,München,48.1642,11.6218
625,Bürgerpark_Oberföhring,München,48.1662,11.6234
626,Oberföhring_Post,München,48.172,11.6267
627,Bernheimerstraße,München,48.1736,11.6286
628,Muspillistraße,München,48.1698,11.6244
629,Sondermeierstraße,München,48.1908,11.6243
630,Altenheim_Effnerstraße,München,48.159,11.6206
632,Prinz-Eugen-Park,München,48.1625,11.6292
633,Schlösselgarten,München,48.1587,11.629
634,Wilhelm-Dieß-Weg,München,48.1551,11.6373
635,Knappertsbuschstraße,München,48.1603,11.6404
636,Bruno-Walter-Ring,München,48.1627,11.6406
637,Taimerhofstraße,München,48.1668,11.6309
638,Pühnstraße,München,48.1467,11.632
640,Zamdorfer_Straße,München,48.1382,11.6351
641,Friedrich-Eckart-Straße,München,48.1403,11.6363
642,Zamdorf_Siedlung,München,48.14,11.6434
643,Süskindstraße,München,48.1399,11.6476
645,Kastenbauerstraße,München,48.1387,11.6395
646,Riedenburger_Straße,München,48.136,11.6238
647,Kronstadter_Straße,München,48.1387,11.6473
648,Zamilapark,München,48.1423,11.6496
650,Effnerplatz,München,48.1522,11.6136
651,Arabellastraße,München,48.1536,11.6178
652,Elektrastraße,München,48.1512,11.6266
653,Cosimabad,München,48.1535,11.6289
654,Denninger_Straße,München,48.1485,11.6224
655,Arabellapark/Klinikum_Bogenh.,München,48.1537,11.6232
656,Rappelhofstraße,München,48.1401,11.6482
657,Ruth-Schaumann-Straße,München,48.1422,11.6475
662,Einsteinstraße,München,48.1369,11.6149
663,Zaubzerstraße,München,48.1395,11.6148
670,Arabellapark,München,48.1533,11.6204
671,Arabellapark_Nord,München,48.1537,11.6207
680,Richard-Strauss-Straße,München,48.1489,11.6163
698,Nettelbeckstraße,München,48.143,11.639
699,Hermann-Gmeiner-Weg,München,48.1464,11.64
700,Daglfing,München,48.149,11.6494
701,Marienburger_Straße,München,48.1472,11.6437
702,Schichtlstraße,München,48.1471,11.6585
703,Trabrennbahn,München,48.1429,11.6613
704,Daglfing_Bahnhof_Ost,München,48.1489,11.6501
705,Daglfing_Bahnhof_West,München,48.1485,11.6485
710,Englschalking,München,48.1566,11.6484
720,Johanneskirchen,München,48.1694,11.6466
721,Johanneskirchen_Bf_West,München,48.1693,11.6446
725,Kunihohstraße,München,48.1498,11.6579
727,Westerlandanger,München,48.1622,11.6626
728,Lübecker_Straße,München,48.167,11.6593
730,Burgauerstraße,München,48.1399,11.6551
731,Rennbahnstraße,München,48.1406,11.662
740,Milbertshofen,München,48.1812,11.5731
745,Bremer_Straße,München,48.1892,11.5699
750,Frankfurter_Ring,München,48.1875,11.5727
751,Korbinianplatz,München,48.1859,11.5728
752,Knorrstraße,München,48.1916,11.5724
753,Max-Diamand-Straße,München,48.1915,11.5675
754,Preußenstraße,München,48.1864,11.5577
755,BMW-FIZ,München,48.1935,11.5706
756,Am_Hart_Süd,München,48.195,11.5721
757,Oberhofer_Weg,München,48.1923,11.5749
758,Anton-Ditt-Bogen,München,48.1913,11.5822
760,Am_Hart,München,48.197,11.5718
762,Hufelandstraße,München,48.1926,11.5794
767,Lotte-Branz-Straße,München,48.1923,11.5903
768,Margot-Kalinke-Straße,München,48.1928,11.5961
769,Maria-Probst-Straße,München,48.1929,11.5993
770,Harthof,München,48.2049,11.5682
771,Helene-Wessel-Bogen,München,48.1963,11.5925
780,Dülferstraße,München,48.2128,11.5625
788,Aschenbrennerstraße,München,48.22,11.5607
790,Hasenbergl,München,48.2132,11.5563
792,Caracciolastraße,München,48.2072,11.5634
800,Riem,München,48.1434,11.679
801,Kirchtruderinger_Straße,München,48.1263,11.674
802,Truchthari-Anger,München,48.1291,11.6765
803,Friedhof_Riem,München,48.1326,11.6797
804,Schwankhardtweg,München,48.1351,11.6814
805,Martin-Empl-Ring,München,48.1407,11.6817
807,Heltauer_Straße,München,48.1303,11.6579
808,Umschlagbahnhof,München,48.1444,11.7058
809,Hofbräuallee,München,48.1438,11.7009
810,Tierheim,München,48.1399,11.6692
811,Graf-Lehndorff-Straße,München,48.1405,11.6804
813,Am_Messesee,München,48.1355,11.6902
814,Paul-Henri-Spaak-Straße,München,48.1385,11.6893
815,An_der_Point,München,48.1409,11.6854
816,Lehrer-Wirth-Straße,München,48.1295,11.6946
817,Helsinkistraße,München,48.1295,11.6894
818,Mutter-Teresa-Straße,München,48.1295,11.6997
819,Selma-Lagerlöf-Straße,München,48.1296,11.7027
824,Paul-Wassermann-Straße,München,48.1355,11.6855
890,August-Everding-Straße,München,48.1255,11.61
891,Ostbahnhof_(Post),München,48.1288,11.6047
892,Ostbahnhof_(Bildungszentrum),München,48.1274,11.6026
893,Baumkirchner_Platz,München,48.1308,11.6319
894,Altöttinger_Straße,München,48.1265,11.6218
895,Ostbahnhof_Friedenstraße,München,48.127,11.6069
896,Grafinger_Straße,München,48.1246,11.6193
897,Neumarkter_Straße,München,48.1313,11.6281
898,Sankt_Pius,München,48.1247,11.6132
899,Berg_am_Laim_Bf_Süd,München,48.1332,11.6326
900,Leuchtenbergring,München,48.1343,11.616
901,Ampfingstraße,München,48.1309,11.6157
902,Schlüsselbergstraße,München,48.1298,11.6228
903,Baumkirchner_Straße,München,48.1283,11.6304
904,Mutschellestraße,München,48.1267,11.6382
906,St.-Veit-Straße,München,48.1218,11.6421
907,Sankt_Michael,München,48.1239,11.6324
908,Schmuckerweg,München,48.1215,11.671
909,Bajuwarenstraße,München,48.124,11.6668
910,Berg_am_Laim,München,48.1361,11.6337
911,Halligenplatz,München,48.1192,11.6605
912,St.-Augustinus-Straße,München,48.1171,11.6566
913,Matterhornstraße,München,48.1147,11.6523
914,Peschelanger,München,48.1091,11.6547
915,Friedrich-Engels-Bogen,München,48.1058,11.659
916,Hugo-Lang-Bogen,München,48.1035,11.6591
917,Oskar-Maria-Graf-Ring,München,48.0988,11.6572
920,Trudering,München,48.1255,11.6633
921,Mühldorfstraße,München,48.1266,11.6135
923,"Truderinger_Straße,_Brücke",München,48.1277,11.6559
926,Halfinger_Straße,München,48.126,11.6555
927,Truderinger_Straße,München,48.126,11.6612
928,Nikolaus-Prugger-Weg,München,48.1194,11.6767
929,Friedenspromenade,München,48.1184,11.6834
930,Bahnstraße,München,48.1155,11.6952
931,Phantasiestraße,München,48.1132,11.7011
932,Von-Erckert-Straße,München,48.1114,11.7093
933,Florastraße,München,48.1174,11.6822
934,Edeltraudstraße,München,48.1146,11.6869
935,Turnerstraße,München,48.1117,11.6907
936,Birkhahnweg,München,48.1085,11.6944
936,Waldtruderinger_Straße,München,48.1085,11.6944
937,Togostraße,München,48.1064,11.6971
938,Sperberstraße,München,48.1076,11.7
939,Drosselweg,München,48.1175,11.6908
940,Iltisstraße,München,48.1038,11.7041
941,Ursberger_Straße,München,48.131,11.6451
942,Thomas-Hauser-Straße,München,48.1295,11.6507
943,Rofanstraße,München,48.1198,11.6502
944,Gnadenwaldplatz,München,48.118,11.6539
945,Mönchbergstraße,München,48.1158,11.6597
946,Simplonstraße,München,48.1146,11.6628
947,Himalajastraße,München,48.1131,11.6665
948,Batschkastraße,München,48.1145,11.6674
949,Spertentalstraße,München,48.1177,11.6698
950,Zauberwaldstraße,München,48.1138,11.6718
951,Markgrafenstraße,München,48.1112,11.6737
952,Vogesenstraße,München,48.1095,11.6712
953,Feldbergstraße,München,48.1084,11.6638
954,Am_Hochacker,München,48.1056,11.6678
955,Hippelstraße,München,48.1021,11.6654
956,Lamprechtstraße,München,48.1014,11.6691
957,Friesplatz,München,48.1002,11.6725
958,Nauestraße,München,48.0988,11.6772
959,Alois-Hahn-Weg,München,48.1051,11.6618
960,Kafkastraße,München,48.0985,11.6488
961,Sudermannallee,München,48.0975,11.6527
962,Klinikum_Neuperlach,München,48.0963,11.6554
963,Tribulaunstraße,München,48.0942,11.6538
964,Im_Gefilde,München,48.0907,11.6617
965,Eulenspiegelstraße,München,48.088,11.6691
966,Waldheimplatz,München,48.0857,11.6747
967,Waldperlach,München,48.0821,11.6723
968,Salzmannstraße,München,48.0812,11.6768
969,Schatzbogen,München,48.1331,11.6603
970,Otto-Hahn-Ring,München,48.0922,11.649
971,Stahlgruberring,München,48.1345,11.6638
972,Karl-Schmid-Straße,München,48.1322,11.6691
973,Moosfeld_Gewerbegebiet,München,48.1359,11.6679
974,Putzbrunner_Straße,München,48.0964,11.6464
975,Ottilienstraße,München,48.1141,11.6774
976,Isengaustraße,München,48.0864,11.6618
977,Klara-Ziegler-Bogen,München,48.084,11.6613
978,Görzer_Straße_Schule,München,48.1046,11.6092
979,Sigmund-Riefler-Bogen,München,48.1367,11.7153
981,Am_Hain,München,48.0832,11.6803
983,Wilhelm-Hale-Straße,München,48.1454,11.5201
988,Anni-Albers-Straße,München,48.1798,11.5892
989,Bergerwaldstraße,München,48.1111,11.6566
990,Gern,München,48.1635,11.529
991,Waldperlach_(Süd),München,48.0813,11.6727
993,Wasserburger_Landstraße,München,48.1213,11.665
994,Kulturzentrum_Trudering,München,48.1197,11.6708
995,Jagdhornstraße,München,48.1123,11.7046
997,Bad-Schachener-Straße,München,48.1199,11.6242
998,Weidener_Straße,München,48.0925,11.6281
999,Bayerwaldstraße,München,48.0885,11.6282
1000,Perlach,München,48.0938,11.6306
1001,Anzinger_Straße,München,48.1208,11.6061
1002,Nailastraße,München,48.0886,11.6336
1003,Ramersdorf,München,48.1155,11.6133
1004,Hechtseestraße,München,48.1157,11.6212
1005,Krumbadstraße,München,48.1167,11.6251
1006,Rudolf-Zorn-Straße,München,48.0909,11.6348
1007,Heinrich-Wieland-Straße,München,48.117,11.64
1008,Hermann-Pünder-Straße,München,48.0885,11.6358
1009,Corinthstraße,München,48.1124,11.6495
1010,Neuperlach_Süd,München,48.0895,11.6444
1011,Karl-Marx-Ring,München,48.1091,11.6499
1012,Ludwig-Linsert-Straße,München,48.0863,11.6347
1013,Ludwig-Erhard-Allee,München,48.0852,11.6394
1014,Wilhelm-Hoegner-Straße,München,48.0989,11.6364
1015,Thomas-Dehler-Straße,München,48.0973,11.6443
1016,Jakob-Kaiser-Straße,München,48.1043,11.6403
1017,Holzwiesenstraße,München,48.103,11.6366
1018,Curd-Jürgens-Straße,München,48.0851,11.6429
1019,Pfanzeltplatz,München,48.1001,11.6303
1020,Therese-Giehse-Allee,München,48.0954,11.6433
1021,Neuer_Südfriedhof,München,48.1009,11.622
1022,Hochäckerstraße,München,48.1011,11.6065
1023,Ständlerstraße,München,48.1046,11.6052
1024,Neuer_Südfriedhof_West,München,48.1012,11.6183
1025,St.-Martin-Straße_Ost,München,48.1192,11.6003
1026,Thomasiusplatz,München,48.1158,11.6021
1027,Aschheimer_Straße,München,48.1208,11.6129
1028,Ostpark_Eislaufzentrum,München,48.1111,11.6321
1029,Wolframstraße,München,48.0948,11.6359
1030,Neuperlach_Zentrum,München,48.101,11.6474
1031,Diakon-Kerolt-Weg,München,48.1117,11.6177
1032,Woferlstraße,München,48.1086,11.6188
1033,Weddigenstraße,München,48.1038,11.6246
1034,Schumacherring,München,48.0995,11.6408
1035,Friedhof_Perlach,München,48.098,11.6405
1036,Berger-Kreuz-Straße,München,48.1129,11.6263
1037,Hofangerstraße,München,48.1106,11.6274
1038,Emdenstraße,München,48.107,11.6278
1039,Georg-Brauchle-Haus,München,48.1103,11.6378
1040,Quiddestraße,München,48.1091,11.6464
1041,Nawiaskystraße,München,48.1068,11.6365
1042,Staudingerstraße,München,48.1091,11.6392
1043,Plettstraße,München,48.1091,11.6443
1044,Ungsteiner_Straße,München,48.115,11.5972
1045,Fockensteinstraße,München,48.1097,11.5891
1046,Valeppstraße,München,48.1109,11.5842
1047,Adilostraße,München,48.1063,11.6212
1048,Siegfried-Mollier-Straße,München,48.1066,11.6464
1050,Michaelibad,München,48.1188,11.6306
1053,Fasangartenstraße,München,48.0898,11.6112
1054,Obernzeller_Straße,München,48.0928,11.6098
1055,Plassenburgstraße,München,48.0974,11.6078
1056,Balanstraße,München,48.1086,11.6041
1057,Klagenfurter_Straße,München,48.1125,11.603
1058,Mitterweg,München,48.1014,11.6104
1059,Görzer_Straße,München,48.0956,11.6094
1060,Innsbrucker_Ring,München,48.1204,11.6191
1061,Landrichterstraße,München,48.0887,11.6075
1062,Cincinnatistraße,München,48.0927,11.6017
1064,Langbürgener_Straße,München,48.1106,11.6127
1070,Karl-Preis-Platz,München,48.1185,11.6095
1100,St.-Martin-Straße,München,48.1187,11.5965
1101,Ganghoferbrücke,München,48.1279,11.5391
1102,Herzog-Ernst-Platz,München,48.1253,11.5407
1103,Sendlinger_Kirche,München,48.122,11.5411
1104,Margaretenplatz,München,48.12,11.5407
1105,Ostfriedhof,München,48.1191,11.5836
1106,St.-Martins-Platz,München,48.1172,11.5884
1107,Werinherstraße,München,48.1149,11.5925
1108,Chiemgaustraße,München,48.1067,11.5963
1109,Schwanseestraße,München,48.1029,11.5971
1110,Giesing,München,48.1108,11.5946
1111,Traunsteiner_Straße,München,48.1047,11.5873
1112,Pöllatstraße,München,48.1052,11.5907
1115,Tegernseer_Landstraße,München,48.1117,11.5762
1117,Kurzstraße,München,48.1046,11.5698
1118,Südtiroler_Straße,München,48.1008,11.5667
1119,Tiroler_Platz,München,48.0962,11.5637
1120,Fasangarten,München,48.0934,11.604
1121,Authariplatz,München,48.092,11.5626
1122,Theodolindenplatz,München,48.0903,11.5569
1123,Klinikum_Harlaching,München,48.0869,11.5549
1124,Menterschwaige,München,48.0802,11.5518
1125,Großhesseloher_Brücke,München,48.0767,11.5502
1126,Schilcherweg,München,48.0713,11.5474
1128,Senserstraße,München,48.123,11.5486
1129,Am_Harras,München,48.1165,11.5401
1130,Harras,München,48.1169,11.5362
1131,Aberlestraße,München,48.1223,11.5445
1132,Lagerhausstraße,München,48.1204,11.5553
1133,Großmarkthalle,München,48.1197,11.5523
1134,Gotzinger_Platz,München,48.1177,11.5503
1139,Maria-Einsiedel-Straße,München,48.0974,11.5444
1140,Implerstraße,München,48.1193,11.5483
1141,Zentralländstraße,München,48.1005,11.5482
1142,Bad_Maria_Einsiedel,München,48.0968,11.5471
1143,Floßlände,München,48.0945,11.5456
1144,Campingplatz_Thalkirchen,München,48.0916,11.544
1145,Hinterbrühl,München,48.0871,11.5412
1146,Spixstraße,München,48.111,11.5795
1148,Schäftlarnstraße,München,48.1123,11.5536
1149,Heckenstallerstraße,München,48.1112,11.5396
1150,Heimeranplatz,München,48.1334,11.5335
1151,Neuhofen,München,48.1073,11.54
1152,Steinerstraße,München,48.1044,11.5403
1154,Rupert-Mayer-Straße,München,48.0964,11.541
1156,Krankenhaus_Martha_Maria,München,48.0862,11.5341
1157,Flößergasse,München,48.1034,11.5381
1158,Tölzer_Straße,München,48.1004,11.5382
1159,Heimeranplatz_Süd,München,48.1322,11.5294
1160,Untersbergstraße,München,48.1128,11.5871
1161,Wolfratshauser_Straße,München,48.0899,11.5375
1162,Neunkirchner_Straße,München,48.0928,11.5401
1163,Jakob-Gelb-Platz,München,48.1136,11.5719
1164,Hans-Mielich-Straße,München,48.1144,11.5701
1165,Tierpark_(Alemannenstr.),München,48.1006,11.5587
1166,Wilhelm-Kuhnert-Straße,München,48.1037,11.5616
1167,Lebscheestraße,München,48.1076,11.5648
1168,Ludmillastraße,München,48.1102,11.5672
1169,Winterstraße,München,48.1156,11.5729
1170,Silberhornstraße,München,48.1152,11.5795
1171,Theodolindenstraße,München,48.0885,11.5596
1172,Autharistraße,München,48.0904,11.5638
1173,Griechenstraße,München,48.0931,11.5698
1174,Säbener_Straße,München,48.0948,11.5739
1175,Hollerbusch,München,48.0955,11.5743
1177,Stadelheimer_Straße,München,48.0999,11.5862
1178,Frasdorfer_Straße,München,48.1012,11.591
1179,Kiefernstraße,München,48.0876,11.5994
1180,Candidplatz,München,48.1115,11.5698
1181,Minnewitstraße,München,48.0911,11.5972
1182,Lincolnstraße,München,48.0942,11.5905
1183,Stettnerstraße,München,48.097,11.5869
1184,Soyerhofstraße,München,48.1016,11.582
1185,Leifstraße,München,48.0914,11.5938
1187,Silberhorn-/Ichostraße,München,48.1159,11.5797
1188,Waltramstraße,München,48.1068,11.5805
1189,Peter-Auzinger-Straße,München,48.0987,11.5827
1190,Wettersteinplatz,München,48.1092,11.5747
1191,Gerhardstraße,München,48.1131,11.5652
1200,St.-Quirin-Platz,München,48.104,11.5818
1201,Hauzenberger_Straße,München,48.1375,11.5221
1202,Lautensackstraße,München,48.1401,11.5184
1203,Schäufeleinstraße,München,48.1416,11.5122
1204,Agnes-Bernauer-Straße,München,48.1393,11.5111
1205,Elsenheimerstraße,München,48.1361,11.524
1206,Am_Lokschuppen,München,48.1407,11.5242
1208,Fachnerstraße,München,48.1297,11.5168
1210,Mangfallplatz,München,48.0979,11.581
1211,Mangfallplatz_Süd,München,48.0965,11.5777
1212,Säulingstraße,München,48.1274,11.512
1213,Stegener_Weg,München,48.1259,11.5083
1214,Hans-Thonauer-Straße,München,48.1349,11.5172
1215,Veldener_Straße,München,48.1451,11.4825
1216,Siglstraße,München,48.135,11.5136
1217,Hansastraße,München,48.131,11.5311
1218,Hansapark,München,48.1283,11.5345
1220,Josephsburg,München,48.127,11.6344
1222,Garmischer_Straße,München,48.1301,11.5285
1224,Siegenburger_Straße,München,48.1263,11.522
1226,Hinterbärenbadstraße,München,48.1208,11.5183
1230,Kreillerstraße,München,48.1259,11.6447
1232,Baumgartnerstraße,München,48.126,11.536
1234,Fuggerstraße,München,48.124,11.5346
1236,Ortlerstraße,München,48.1204,11.5347
1240,Moosfeld,München,48.1305,11.6707
1250,Messestadt_West,München,48.1334,11.6898
1251,Messestadt_Süd,München,48.1284,11.6911
1260,Messestadt_Ost,München,48.1334,11.7036
1300,Mittersendling,München,48.1087,11.5363
1301,Baierbrunner_Straße,München,48.0934,11.5304
1302,Hofmannstraße,München,48.0998,11.5291
1303,Ratzingerplatz,München,48.0994,11.5238
1304,Ringelnatzweg,München,48.0754,11.5232
1305,Drachenseestraße,München,48.1168,11.5316
1306,Fernpaßstraße,München,48.115,11.5228
1307,Luise-Kiesselbach-Platz,München,48.1133,11.517
1308,Ettalstraße,München,48.1132,11.5138
1309,Werdenfelsstraße,München,48.1125,11.5078
1310,Siemenswerke,München,48.0955,11.5316
1311,Waldfriedhof,München,48.1121,11.5023
1312,Waldfriedhof_(Wendeschleife),München,48.1123,11.503
1313,Grünstraße,München,48.11,11.5262
1315,Pilsenseestraße,München,48.1093,11.5201
1316,Höglwörther_Straße,München,48.1068,11.5224
1317,Murnauer_Straße,München,48.1019,11.5242
1318,Diefenbachstraße,München,48.0805,11.5235
1319,Aichacher_Straße,München,48.1048,11.5181
1320,Solln,München,48.0791,11.5275
1321,Adunistraße,München,48.1095,11.5343
1322,Schneemannstraße,München,48.1058,11.5326
1323,Zielstattstraße,München,48.1026,11.53
1324,Geisenhausenerstraße,München,48.0988,11.5186
1325,Sollner_Straße,München,48.0769,11.5252
1326,Melchiorstraße,München,48.0723,11.5198
1327,Gmunder_Straße,München,48.0957,11.5276
1328,Friedastraße,München,48.0813,11.529
1329,Solln_Bf_Wendeschleife,München,48.0814,11.5275
1330,Partnachplatz,München,48.1165,11.5266
1331,Josephinenstraße,München,48.0824,11.5371
1332,Weltistraße,München,48.0875,11.5072
1333,Carola-Neher-Straße,München,48.0906,11.5329
1334,Fertigstraße,München,48.0889,11.5091
1335,Johann-Clanze-Straße,München,48.1128,11.5338
1336,Friedrich-Hebbel-Straße,München,48.1128,11.526
1337,Kistlerhofstraße,München,48.0952,11.5234
1338,Leutstettener_Straße,München,48.0934,11.5226
1339,Siemensallee,München,48.0905,11.5211
1340,Westpark,München,48.1179,11.5171
1341,Münsinger_Straße,München,48.0905,11.5177
1342,Spindlerplatz,München,48.09,11.5142
1343,Sentilostraße,München,48.0879,11.5149
1344,Bastian-Schmid-Platz,München,48.0851,11.5133
1345,Marienstern,München,48.0877,11.5197
1346,Hofbrunnstraße,München,48.0837,11.5172
1347,Glötzleweg,München,48.0862,11.5101
1348,Kandinskystraße,München,48.0856,11.5064
1349,Wilhelm-Busch-Straße,München,48.0822,11.5061
1350,Munckerstraße,München,48.0895,11.5029
1351,Gulbranssonstraße,München,48.0824,11.5037
1352,Parkstadt_Solln,München,48.0798,11.5036
1353,Allescherstraße,München,48.0825,11.5199
1354,Stäblistraße,München,48.0866,11.503
1355,Nesselwanger_Straße,München,48.0847,11.4908
1356,Forstenried,München,48.0848,11.4947
1357,Eberlestraße,München,48.0784,11.508
1358,Bleibtreustraße,München,48.0762,11.5143
1359,Stridbeckstraße,München,48.0764,11.5195
1360,Gilgstraße,München,48.0818,11.5089
1361,Geretsrieder_Straße,München,48.1,11.5331
1362,Waldfriedhof_Solln,München,48.0691,11.5171
1363,Whistlerweg,München,48.0719,11.5239
1402,Aurikelstraße,München,48.1082,11.491
1403,Plattlinger_Straße,München,48.0788,11.5127
1404,Lorettoplatz,München,48.1036,11.4887
1405,Staffelseestraße,München,48.0922,11.5064
1408,Züricher_Straße,München,48.0943,11.504
1409,Limmatstraße,München,48.0947,11.5011
1411,Hatzelweg,München,48.0864,11.4957
1413,Kriegelsteinerstraße,München,48.0899,11.4969
1415,Bad_Forstenried,München,48.087,11.4994
1416,Neurieder_Straße,München,48.0868,11.4854
1421,Forstenrieder_Park,München,48.0774,11.4885
1422,Mindelheimer_Straße,München,48.0801,11.4922
1423,Spielmannsauer_Straße,München,48.0823,11.494
1424,Marchioninistraße,München,48.1136,11.4768
1426,Max-Lebsche-Platz,München,48.1086,11.4754
1430,Brudermühlstraße,München,48.1122,11.5487
1431,Sylvensteinstraße,München,48.113,11.5395
1432,Zöllerstraße,München,48.1052,11.4752
1434,Ehrenmal,München,48.0993,11.479
1436,Tischlerstraße,München,48.0951,11.4805
1437,Bellinzonastraße,München,48.0934,11.4812
1438,Forst-Kasten-Allee,München,48.0947,11.4765
1440,Thalkirchen_(Tierpark),München,48.1014,11.5466
1441,Maxhofstraße,München,48.0882,11.4792
1442,Gautinger_Straße,München,48.0849,11.4785
1444,Vinzenz-Schüpfer-Straße,München,48.0835,11.4838
1446,Allgäuer_Straße,München,48.082,11.4856
1448,Kemptener_Straße,München,48.0788,11.4842
1450,Obersendling,München,48.0984,11.538
1452,Tessiner_Straße,München,48.0907,11.4751
1454,Appenzeller_Straße,München,48.093,11.4754
1460,Aidenbachstraße,München,48.0979,11.5241
1462,Waldfriedhof_Haupteingang,München,48.1077,11.5022
1464,Drygalski-Allee,München,48.0982,11.5084
1466,Südpark,München,48.1009,11.5111
1470,Machtlfinger_Straße,München,48.0981,11.5135
1472,Klinikum_Großhadern_Ost,München,48.1112,11.4739
1474,Klinikum_Großhadern_Nord,München,48.1123,11.4668
1476,Klinikum_West,München,48.1085,11.4666
1480,Forstenrieder_Allee,München,48.0947,11.4985
1490,Basler_Straße,München,48.0905,11.4903
1500,Fürstenried_West,München,48.0886,11.4804
1502,Kornwegerstraße,München,48.1122,11.4948
1510,Holzapfelkreuth,München,48.1163,11.5024
1514,Andreas-Vöst-Straße,München,48.1217,11.5026
1516,Ammerseestraße,München,48.126,11.5028
1518,Aindorferstraße,München,48.1312,11.5028
1520,Haderner_Stern,München,48.1184,11.4901
1524,Gräfelfinger_Straße,München,48.1173,11.4951
1525,Kurparkstraße,München,48.1195,11.4962
1526,Stiftsbogen,München,48.1206,11.4916
1527,Wolkerweg,München,48.1206,11.4872
1530,Großhadern,München,48.1155,11.4772
1532,Großhaderner_Straße,München,48.1195,11.4811
1533,Gelbhofstraße,München,48.1221,11.4757
1534,Am_Ährenfeld,München,48.12,11.4783
1535,Am_Hedernfeld,München,48.1199,11.4691
1536,Haderunstraße,München,48.1222,11.4789
1537,Am_Hedernfeld_Nord,München,48.1217,11.4728
1538,Krokusstraße,München,48.1258,11.4793
1539,Butenandstraße,München,48.1134,11.4643
1540,Klinikum_Großhadern,München,48.1089,11.4738
1541,Hanna-Kirchner-Weg,München,48.1177,11.4691
1542,Terofalstraße,München,48.1256,11.4754
1543,Flemischweg,München,48.128,11.4704
1544,Wastl-Witt-Straße,München,48.1267,11.4697
1545,Wildanger,München,48.1195,11.473
1546,Drozzaweg,München,48.1208,11.4756
1552,Senftenauerstraße,München,48.1257,11.4978
1554,Gondrellplatz,München,48.1246,11.49
1562,Saalburgstraße,München,48.1137,11.4875
1563,Platanenstraße,München,48.1146,11.4833
1572,Zinckgrafstraße,München,48.115,11.4715
1574,Waldhüterstraße,München,48.1147,11.4672
1602,Fürstenrieder_Straße,München,48.1397,11.5031
1604,Agnes-Bernauer-Platz,München,48.1399,11.496
1605,Pörtschacher_Straße,München,48.1443,11.4903
1606,Willibaldplatz,München,48.1409,11.4888
1608,Lohensteinstraße,München,48.1416,11.4816
1612,Westbad,München,48.1424,11.4748
1614,Am_Knie,München,48.1455,11.4717
1618,Offenbachstraße,München,48.1462,11.4653
1622,Pasinger_Marienplatz,München,48.1463,11.4592
1623,Engelbertstraße,München,48.1437,11.458
1624,Rathaus_Pasing,München,48.1467,11.4613
1626,Planegger_Straße,München,48.1401,11.457
1627,Weinbergerstraße,München,48.1404,11.4618
1628,Siegmannstraße,München,48.1374,11.4611
1629,Kraillinger_Weg,München,48.1383,11.4549
1630,Siedlung_am_Haidelweg,München,48.1359,11.4533
1632,Seeholzenweg,München,48.1324,11.4688
1633,Perlschneiderstraße,München,48.1355,11.4634
1634,Blumenau,München,48.1283,11.4745
1636,Silberdistelstraße,München,48.1294,11.4795
1638,Willibaldstraße,München,48.1301,11.483
1642,Sulzbeckstraße,München,48.1336,11.4836
1643,Fischer-von-Erlach-Straße,München,48.1374,11.4801
1644,Mitterfeldstraße,München,48.1368,11.4852
1646,Stroblstraße,München,48.1361,11.4935
1648,Pronnerplatz,München,48.1437,11.4969
1652,Hönigschmidplatz,München,48.1299,11.4896
1654,Menaristraße,München,48.1286,11.4942
1656,Guido-Schneble-Straße,München,48.1316,11.4983
1662,Scapinellistraße,München,48.1482,11.4541
1664,Krankenhaus_Pasing,München,48.1456,11.4531
1666,Avenariusplatz,München,48.1424,11.4507
1668,Wehnerstraße,München,48.1405,11.4481
1669,Peslmüllerstraße,München,48.1413,11.4461
1672,Dachstraße,München,48.1379,11.4432
1674,Maria-Eich-Str.,München,48.1369,11.4414
1682,Varnhagenstraße,München,48.1506,11.449
1683,Volmstraße,München,48.1508,11.4542
1700,Leienfelsstraße,München,48.1546,11.4278
1701,Betschartstraße,München,48.146,11.4465
1702,Ravensburger_Ring,München,48.1503,11.4368
1703,Heimburgstraße,München,48.148,11.4447
1704,Mainaustraße,München,48.1493,11.4338
1706,Sipplinger_Straße,München,48.1493,11.431
1708,Wertheimer_Straße,München,48.1485,11.4257
1709,Anton-Böck-Straße,München,48.1351,11.4113
1710,Aubing,München,48.1538,11.4138
1711,Ubostraße,München,48.1567,11.416
1712,Altenburgstraße,München,48.1474,11.4214
1713,Mariabrunner_Straße,München,48.1606,11.4203
1714,Hohensteinstraße,München,48.1459,11.4222
1715,Kronwinkler_Straße,München,48.1614,11.4233
1716,Veldensteinstraße,München,48.1405,11.4251
1717,Jaspersallee,München,48.1637,11.4354
1718,Wiesentfelser_Straße,München,48.1465,11.4144
1719,Papinstraße,München,48.1393,11.4173
1720,Westkreuz,München,48.1493,11.441
1721,Ellis-Kaut-Straße,München,48.1455,11.4104
1722,Riesenburgstraße,München,48.1486,11.4137
1724,Kunreuthstraße,München,48.1505,11.4131
1726,Neuaubing_West,München,48.1525,11.4098
1727,Benedikterstraße,München,48.1404,11.4687
1728,Plankenfelser_Straße,München,48.1497,11.4206
1730,Neuaubing,München,48.1428,11.4238
1732,Limesstraße,München,48.154,11.4185
1733,Germeringer_Weg,München,48.1583,11.4133
1734,Bergsonstraße,München,48.16,11.415
1735,Elisabeth-Jost-Straße,München,48.1558,11.4204
1736,Gilchinger_Straße,München,48.1642,11.4133
1737,Überlinger_Weg,München,48.1444,11.4351
1738,Allinger_Straße,München,48.1676,11.411
1739,Joseph-Suder-Bogen,München,48.1565,11.4229
1740,Freiham,München,48.1411,11.4116
1741,Ilse-Fehling-Straße,München,48.1573,11.4263
1742,Asmarstraße,München,48.1724,11.407
1743,Staufener_Straße,München,48.1578,11.43
1744,Sumpfmeisenweg,München,48.1797,11.3984
1745,Englburgstraße,München,48.1567,11.4352
1746,Ziegeleistraße,München,48.1763,11.4035
1747,Hellensteinstraße,München,48.1531,11.4357
1748,Federseestraße,München,48.1753,11.3968
1749,Tettnanger_Straße,München,48.1521,11.4406
1750,Erlbachstraße,München,48.1747,11.3947
1751,Hörweg,München,48.152,11.4065
1752,Pirolstraße,München,48.1798,11.3957
1753,Otto-Meitinger-Straße,München,48.1493,11.4049
1754,Krähenweg,München,48.1813,11.3912
1755,Helmut-Schmidt-Allee,München,48.1425,11.4079
1756,Eichelhäherstraße,München,48.1739,11.3906
1757,Bildungscampus_Freiham,München,48.1412,11.4031
1758,Clarita-Bernhard-Straße,München,48.1382,11.4091
1759,Ehrenbürgstraße,München,48.1415,11.4144
1762,Hans-Steinkohl-Straße,München,48.1349,11.411
1765,Freiham_Möbel_Höffner,München,48.1342,11.413
1766,Karwinskistraße_West,München,48.1681,11.4645
1767,Benderstraße,München,48.172,11.4646
1768,Im_Wismat,München,48.1736,11.4669
1769,Thuillestraße,München,48.1737,11.4695
1770,Bauseweinallee,München,48.1748,11.4728
1771,Stücklenstraße,München,48.1717,11.4741
1772,Heerstraße_West,München,48.1695,11.4745
1773,Karwinskistraße_Ost,München,48.1681,11.4754
1793,Langwieder_See,München,48.1985,11.4132
1794,Campingplatz_Langwieder_See,München,48.1985,11.4111
1796,Pasing_Bf_Nord,München,48.1505,11.4623
1797,Orthstraße,München,48.1541,11.4668
1798,Marsopstraße,München,48.1572,11.467
1799,Menterstraße,München,48.1612,11.4671
1800,Langwied,München,48.163,11.4323
1801,Marschnerstraße,München,48.1532,11.456
1802,Rubensstraße,München,48.1574,11.4502
1803,Polkostraße,München,48.1604,11.446
1804,Alte_Allee,München,48.1638,11.4431
1805,Friedhof_Obermenzing,München,48.1644,11.4481
1806,Bertha-von-Suttner-Weg,München,48.1651,11.453
1807,Blutenburg,München,48.1652,11.4568
1808,Wöhlerstraße,München,48.1648,11.4631
1809,Dorfstraße,München,48.1648,11.4673
1810,Lochhausen,München,48.1774,11.4075
1811,Sarasatestraße,München,48.1646,11.4733
1812,Schloss_Blutenburg,München,48.1643,11.4547
1813,Rüttenauerplatz,München,48.1627,11.4485
1814,Von-Kahr-Straße,München,48.1772,11.463
1815,Campingplatz_Obermenzing,München,48.175,11.4467
1816,Lochhausener_Straße,München,48.1695,11.457
1817,Steirerstraße,München,48.1728,11.4602
1818,Friedhof_Untermenzing,München,48.1779,11.4617
1819,Pfarrer-Grimm-Straße,München,48.1795,11.4613
1820,Willi-Wien-Straße,München,48.1775,11.4681
1821,Esmarchstraße,München,48.1855,11.46
1822,Vesaliusstraße,München,48.1887,11.4607
1823,St.-Johann-Straße,München,48.1918,11.4664
1824,Höcherstraße,München,48.194,11.4618
1825,Franz-Nißl-Straße,München,48.1961,11.4614
1826,Kleselstraße,München,48.199,11.458
1828,Otto-Warburg-Straße,München,48.2061,11.4578
1829,Servetstraße,München,48.1947,11.4565
1830,Gerlachweg,München,48.18,11.4459
1831,Hauseggerstraße,München,48.192,11.4516
1832,Riederstraße,München,48.1862,11.4455
1833,Brückestraße,München,48.1821,11.4445
1834,Pasinger_Heuweg,München,48.1832,11.4469
1835,Augustenfelder_Straße,München,48.2006,11.4444
1836,Karl-Hänel-Straße,München,48.2002,11.4478
1837,Pregerstraße,München,48.2012,11.453
1838,Auenbruggerstraße,München,48.1812,11.4499
1839,Eversbuschstraße,München,48.1913,11.4595
1840,Georg-Reismüller-Straße,München,48.1943,11.464
1841,Nusselstraße,München,48.1501,11.4691
1842,Sibeliusstraße,München,48.1547,11.4705
1844,Schmaedelstraße,München,48.1507,11.475
1846,Peter-Anders-Straße,München,48.1531,11.4765
1847,Paul-Gerhardt-Allee,München,48.1564,11.4786
1848,Am_Durchblick,München,48.161,11.4782
1849,Josef-Lang-Straße,München,48.1501,11.472
1851,Goteboldstraße,München,48.1772,11.443
1852,Paulaner_Brauerei,München,48.1764,11.4368
1853,Langwied_Ortsmitte,München,48.1812,11.4242
1854,Osterangerstraße,München,48.1796,11.4181
1855,Eschenrieder_Straße,München,48.1797,11.4078
1856,Krauss-Maffei-Straße_Ost,München,48.1938,11.4731
1857,Krauss-Maffei-Straße,München,48.1936,11.4708
1858,Erna-Eckstein-Straße,München,48.1502,11.4766
1859,Berduxstraße,München,48.1516,11.4798
1900,Obermenzing,München,48.1642,11.4786
1901,Frauendorferstraße,München,48.1638,11.4762
1902,Freseniusstraße,München,48.164,11.4812
1904,Fasanenstraße,München,48.1672,11.4874
1906,Reginbaldstraße,München,48.169,11.4847
1908,Heerstraße,München,48.1708,11.4819
1910,Allach,München,48.1898,11.467
1911,Allach_Bahnhof_Ost,München,48.1928,11.4685
1912,Kunstmannstraße,München,48.1739,11.4772
1914,Finsterwalderstraße,München,48.176,11.4746
1916,Karl-von-Roth-Straße,München,48.1794,11.4747
1918,Krautheimstraße,München,48.1829,11.4726
1921,Von-Reuter-Straße,München,48.1816,11.4753
1922,Penzoltstraße,München,48.1803,11.4829
1924,Korbinian-Beer-Straße,München,48.1835,11.4785
1926,Gruithuisenstraße,München,48.1834,11.484
1928,Manzostraße,München,48.184,11.489
1930,Untermenzing,München,48.1778,11.4743
1931,Zaunerstraße,München,48.1781,11.4807
1932,Waldhornstraße,München,48.1795,11.4897
1934,Untermenzinger_Straße,München,48.1781,11.4948
1936,Lauinger_Straße,München,48.1792,11.4961
1938,Dillinger_Straße,München,48.182,11.4957
1942,Ohlauer_Straße,München,48.1836,11.501
1943,Donauwörther_Straße,München,48.1841,11.4964
1944,Hortigstraße,München,48.1871,11.4721
1945,Rueßstraße,München,48.1848,11.4725
1946,Angerlohstraße,München,48.1891,11.4725
1948,Tubeufstraße,München,48.1915,11.4735
1956,Vogelloh,München,48.2135,11.4676
1958,Allacher_Forstweg,München,48.2108,11.4815
1962,Eininger_Straße,München,48.186,11.5041
1963,Max-Born-Straße,München,48.1918,11.5022
1964,Ferchenbachstraße,München,48.2025,11.4943
1965,Rangierbahnhof,München,48.1945,11.4956
1967,Haylerstraße,München,48.1883,11.5033
1968,Kristallstraße,München,48.2128,11.4846
1969,Siedlung_Ludwigsfeld,München,48.2173,11.4894
1971,Achatstraße,München,48.2167,11.4891
1973,Feldmochinger_See,München,48.2183,11.518
1974,Opalstraße,München,48.2161,11.4866
1975,"MAN,_Siedlung",München,48.2183,11.4829
1976,Karlsfelder_Straße,München,48.2163,11.4808
1978,Kaiserhölzlstraße,München,48.2163,11.5086
1979,Schwarzhölzlstraße,München,48.2181,11.5249
1981,Grashofstraße,München,48.2172,11.529
1982,Faganastraße,München,48.2076,11.5334
1983,Bergwachtstraße,München,48.2111,11.5307
1984,Josef-Frankl-Straße,München,48.2152,11.5307
1986,Lerchenstraße,München,48.2146,11.5349
5000,Hauptbahnhof_Süd,München,48.1393,11.5592
7000,Hauptbahnhof_Nord,München,48.1412,11.5608
8019,MVG-Museum,München,48.1036,11.6016
8888,Olympiapark_Parkharfe,München,48.1707,11.5416
8888,Toni-Merkens-Weg,München,48.1707,11.5416
9015,Spiridon-Louis-Ring,München,48.1679,11.5547
9029,Olympiaberg,München,48.1692,11.5492
9029,Tollwood,München,48.1692,11.5492
9751,Dostlerstraße,München,48.1772,11.5599
9752,Riesenfeldstraße_/_Tor_5,München,48.1822,11.5632
9753,IT-Zentrum,München,48.1893,11.5699
9755,Anton-Ditt-Bogen,München,48.1907,11.5814
9756,Heidemannstr._164,München,48.2001,11.602
9758,Freimann_(Auslieferung),München,48.1937,11.6067
9760,Moosacher_Str._51,München,48.1855,11.5573
9761,Lauchstädter_Straße,München,48.189,11.5739
9766,Taunusstraße,München,48.1889,11.5784
9767,BTZ_Lemgostraße,München,48.1921,11.5545
9952,Siglstraße_Nord,München,48.1388,11.5137
