name,city,lon,lat,id
Karlsplatz (Stachus),München,48.1394,11.5654,0
Marienplatz,München,48.1364,11.5777,1
Isartor,München,48.1339,11.5828,2
Rosenheimer Platz,München,48.1286,11.5939,3
Ostbahnhof,München,48.1281,11.6041,4
Hauptbahnhof,München,48.1403,11.5611,5
Hackerbrücke,München,48.1435,11.5488,6
Donnersbergerbrücke,München,48.1427,11.5346,7
Laim,München,48.1431,11.5032,8
Pasing,München,48.1488,11.4606,9
Leonrodplatz,München,48.1595,11.5474,10
Hochschule München (Lothstr.),München,48.1543,11.5538,11
Sandstraße,München,48.1506,11.5581,12
Karlstraße,München,48.1448,11.5596,13
Lenbachplatz,München,48.1409,11.5683,14
Nationaltheater,München,48.1394,11.5786,15
Kammerspiele,München,48.1385,11.5831,16
Maxmonument,München,48.1376,11.5881,17
Marienplatz (Theatinerstr.),München,48.1395,11.5753,18
Theatinerstraße,München,48.1395,11.5753,19
Maximilianeum,München,48.1361,11.596,20
Flurstraße,München,48.1356,11.6048,21
Grillparzerstraße,München,48.1363,11.6091,22
Alter Messeplatz,München,48.1346,11.5463,23
Isartor/Zweibrückenstraße,München,48.1328,11.5836,24
Ridlerstraße,München,48.1307,11.5392,25
Landshuter Allee,München,48.1517,11.5369,26
Poccistraße,München,48.1251,11.5496,27
Hirschgarten,München,48.1435,11.5195,28
Hochschule München,München,48.1554,11.5533,29
Nordbad,München,48.1609,11.5634,30
Görresstraße,München,48.156,11.5622,31
Georgenstraße,München,48.1552,11.5835,32
Müllerstraße,München,48.1314,11.5715,33
Goetheplatz,München,48.1295,11.5584,34
Eduard-Schmid-Straße,München,48.1263,11.5784,35
Mariahilfplatz,München,48.1244,11.5811,36
Kurfürstenplatz,München,48.1603,11.575,37
Winzererstraße,München,48.1577,11.5601,38
Infanteriestraße Süd,München,48.1565,11.5589,39
Haidenauplatz,München,48.1324,11.6101,40
Elisabethplatz,München,48.1576,11.575,41
Nordendstraße,München,48.1549,11.5754,42
Schellingstraße,München,48.151,11.5733,43
Sendlinger Tor,München,48.1333,11.5664,44
Pinakotheken,München,48.148,11.5713,45
Karolinenplatz,München,48.1454,11.5696,46
Ottostraße,München,48.1423,11.5678,47
Donnersbergerstraße,München,48.1463,11.5359,48
Hermann-Lingg-Straße,München,48.139,11.5516,49
Georg-Hirth-Platz,München,48.1346,11.556,50
Beethovenplatz,München,48.1331,11.558,51
Kapuzinerplatz/ Arbeitsagentur,München,48.1268,11.5584,52
Kapuzinerstraße,München,48.1251,11.5619,53
Odeonsplatz,München,48.1429,11.5777,54
Baldeplatz,München,48.1234,11.5671,55
Claude-Lorrain-Straße,München,48.1211,11.5714,56
Humboldtstraße,München,48.1195,11.5753,57
Barthstraße,München,48.1403,11.5302,58
Trappentreustraße,München,48.14,11.5344,59
Schrenkstraße,München,48.1396,11.5413,60
Holzapfelstraße,München,48.1392,11.5471,61
Reichenbachplatz,München,48.1333,11.5766,62
Deutsches Museum,München,48.1319,11.5861,63
Universität,München,48.149,11.5805,64
Am Gasteig,München,48.1328,11.5916,65
Wiener Platz,München,48.1341,11.5958,66
Friedensengel/Villa Stuck,München,48.1407,11.6001,67
Holbeinstraße,München,48.1432,11.6013,68
Sternwartstraße,München,48.1461,11.6033,69
Herkomerplatz,München,48.1509,11.6089,70
Mauerkircherstraße,München,48.1488,11.6008,71
Tivolistraße,München,48.1501,11.5966,72
Paradiesstraße,München,48.1463,11.593,73
Giselastraße,München,48.1571,11.5849,74
Nationalmuseum/Haus d.Kunst,München,48.1431,11.5885,75
Astallerstraße,München,48.1355,11.5305,76
Tumblingerstraße,München,48.1233,11.5538,77
Mariannenplatz,München,48.1352,11.5867,78
Kazmairstraße,München,48.135,11.534,79
Maxvorstadt/Sammlg. Brandhorst,München,48.1484,11.5743,80
Bergmannstraße,München,48.1349,11.5374,81
Wörthstraße,München,48.1321,11.5979,82
Orleansstraße,München,48.1253,11.5995,83
Holzkirchner Bahnhof,München,48.1392,11.5559,84
Bundesfinanzhof,München,48.1482,11.6055,85
Kustermannpark,München,48.1242,11.6013,86
Tal,München,48.136,11.5794,87
Technische Universität,München,48.1483,11.5654,88
Klenzestraße,München,48.1253,11.5707,89
Amalienstraße,München,48.1478,11.5764,90
Hauptbahnhof (Gl. 5-36),München,48.1412,11.5589,91
Hans-Fischer-Straße,München,48.1274,11.5447,92
Gollierplatz,München,48.1363,11.5343,93
Schlörstraße,München,48.1499,11.5368,94
Albrechtstraße,München,48.1557,11.5404,95
Fasaneriestraße,München,48.1573,11.5435,96
Infanteriestraße,München,48.1615,11.5537,97
Barbarastraße,München,48.1614,11.5574,98
Hohenzollernstraße,München,48.1592,11.5853,99
Friedrichstraße,München,48.1599,11.5806,100
Königsplatz,München,48.1462,11.564,101
Regerplatz,München,48.1249,11.589,102
Viktualienmarkt,München,48.1351,11.5749,103
Blumenstraße,München,48.1332,11.574,104
Gärtnerplatztheater,München,48.1322,11.5752,105
Baaderstraße,München,48.13,11.5784,106
Schweigerstraße,München,48.1267,11.583,107
Taubenstraße,München,48.1219,11.5789,108
Kirchenstraße,München,48.1331,11.605,109
Boschbrücke,München,48.131,11.5824,110
Theresienstraße,München,48.1512,11.5643,111
Reitmorstraße/Sammlung Schack,München,48.142,11.5937,112
Ludwigsbrücke,München,48.1327,11.5853,113
Königinstraße,München,48.1438,11.585,114
Von-der-Tann-Straße,München,48.1453,11.5788,115
Türkenstraße,München,48.1503,11.576,116
Arcisstraße,München,48.1518,11.5707,117
Luisenstraße,München,48.1525,11.5681,118
Augustenstraße,München,48.1531,11.5659,119
Roecklplatz,München,48.1207,11.5616,120
Josephsplatz,München,48.1548,11.5663,121
St.-Jakobs-Platz,München,48.1353,11.5726,122
Hirschauer Straße,München,48.1506,11.5953,123
Galileiplatz,München,48.1442,11.6066,124
Wehrlestraße,München,48.1482,11.6081,125
Chinesischer Turm,München,48.1528,11.5934,126
Thiemestraße,München,48.1566,11.5887,127
Am Tucherpark,München,48.1528,11.5991,128
Schwester-Eubulina-Platz,München,48.1235,11.5932,129
Auerfeldstraße,München,48.1236,11.5962,130
Hohenzollernplatz,München,48.1612,11.568,131
Stephansplatz,München,48.1308,11.5658,132
Maistraße,München,48.1294,11.5621,133
Waltherstraße,München,48.1275,11.5638,134
Zenettistraße,München,48.1225,11.5591,135
ZOB,München,48.1424,11.5499,136
Ehrengutstraße,München,48.1214,11.5573,137
Fraunhoferstraße,München,48.1279,11.5762,138
Corneliusbrücke,München,48.1293,11.5793,139
Aurbacherstraße,München,48.1224,11.5903,140
Dom-Pedro-Straße,München,48.1597,11.5375,141
Elisenstraße,München,48.1424,11.5616,142
Nymphenburg Süd,München,48.1463,11.5024,143
Hubertusbrunnen,München,48.1592,11.5301,144
Kolumbusplatz (Nord),München,48.1206,11.5766,145
Kolumbusplatz,München,48.1191,11.5765,146
St.-Cajetan-Straße,München,48.1214,11.599,147
Kolumbusplatz/Humboldtstraße,München,48.1192,11.5758,148
Volkartstraße Ost,München,48.1563,11.5375,149
Hanebergstraße,München,48.1626,11.5374,150
Marienplatz (Rindermarkt),München,48.1356,11.5737,151
Marienplatz Süd,München,48.1356,11.5737,152
Stiglmaierplatz,München,48.1471,11.5588,153
Maillingerstraße,München,48.1503,11.5446,154
Gaiglstraße,München,48.1524,11.5505,155
Rotkreuzplatz,München,48.153,11.5335,156
Oskar-von-Miller-Ring,München,48.1454,11.5755,157
Westfriedhof,München,48.1693,11.5284,158
Dantebad,München,48.1665,11.5275,159
Klugstraße,München,48.1642,11.529,160
St.-Galler-Straße,München,48.1597,11.5304,161
Neuhausen,München,48.1564,11.5314,162
Volkartstraße,München,48.1551,11.5326,163
Sadelerstraße,München,48.1686,11.5224,164
Winthirplatz,München,48.1519,11.5279,165
Dankwartstraße,München,48.1514,11.5237,166
Amalienburgstraße,München,48.1656,11.4932,167
Botanischer Garten,München,48.1645,11.5026,168
Maria-Ward-Straße,München,48.1637,11.507,169
Dall'Armistraße,München,48.1614,11.5113,170
Schloss Nymphenburg,München,48.1585,11.5115,171
Romanplatz,München,48.1556,11.5116,172
Steubenplatz,München,48.1501,11.5203,173
Briefzentrum,München,48.149,11.5244,174
Burghausener Straße,München,48.1473,11.5296,175
Kriemhildenstraße,München,48.1522,11.5154,176
Renatastraße,München,48.1566,11.5266,177
Hubertusstraße,München,48.156,11.5199,178
Marsstraße,München,48.145,11.5419,179
Deroystraße,München,48.1442,11.5454,180
Mettenstraße,München,48.1682,11.5145,181
Herthastraße,München,48.1493,11.5033,182
Kemnatenstraße,München,48.1513,11.5042,183
Hirschgartenallee,München,48.1529,11.5081,184
Nederlinger Straße,München,48.17,11.5107,185
Netzerstraße,München,48.1761,11.507,186
Skagerrakstraße,München,48.1727,11.5045,187
Baubergerstraße,München,48.1771,11.506,188
Hopfenstraße,München,48.1424,11.5544,189
Amphionpark,München,48.1734,11.5151,190
Schragenhofstraße,München,48.1725,11.5022,191
Lustheimstraße,München,48.1638,11.486,192
In den Kirschen,München,48.1672,11.5095,193
Bunzlauer Platz,München,48.1792,11.5071,194
Winfriedstraße,München,48.1474,11.5033,195
Nederlinger Straße (West),München,48.1707,11.5089,196
Theresienwiese,München,48.1357,11.5522,197
Schwanthalerhöhe,München,48.1335,11.5397,198
Theresienhöhe,München,48.1326,11.546,199
Westendstraße,München,48.1344,11.5227,200
Friedenheimer Straße,München,48.1351,11.5114,201
Laimer Platz,München,48.1355,11.503,202
Stadtwerke München,München,48.1712,11.5306,203
Olympiasee,München,48.1715,11.546,204
Sapporobogen,München,48.1694,11.5376,205
Angererstraße,München,48.1675,11.5705,206
Georg-Birk-Straße,München,48.164,11.557,207
Ackermannbogen,München,48.165,11.5562,208
Olympiapark Süd,München,48.1623,11.5519,209
Deidesheimer Straße,München,48.1686,11.5594,210
Margarete-Steiff-Straße,München,48.1802,11.5,211
Moosach,München,48.1804,11.5074,212
Pelkovenstraße,München,48.1811,11.5115,213
Hugo-Troendle-Straße,München,48.1793,11.5148,214
Wintrichring,München,48.1758,11.522,215
Hanauer Straße,München,48.1725,11.5282,216
Borstei,München,48.1697,11.533,217
Olympiapark West,München,48.1659,11.5379,218
Heideckstraße,München,48.1629,11.5422,219
Goethe-Institut,München,48.1629,11.5422,220
Gartenstraße,München,48.1723,11.5649,221
Ackermannstraße,München,48.1679,11.5649,222
Fasanerie,München,48.1969,11.5245,223
Herzogstraße,München,48.1635,11.5642,224
Georg-Brauchle-Ring,München,48.1764,11.5291,225
Ehrenbreitsteiner Straße,München,48.1873,11.5287,226
Riesstraße,München,48.1847,11.533,227
Bingener Straße,München,48.1822,11.5212,228
Olympia-Einkaufszentrum West,München,48.184,11.5314,229
Olympia-Einkaufszentrum Ost,München,48.1832,11.5368,230
Feldmoching,München,48.2139,11.5403,231
Olympia-Pressestadt,München,48.1798,11.5368,232
Lassallestraße,München,48.1871,11.5336,233
Olympiapark Nord,München,48.1863,11.5418,234
Lerchenauer Straße,München,48.186,11.5517,235
Olympiapark Eissportstadion,München,48.1761,11.5598,236
Curt-Mezger-Platz,München,48.1813,11.5669,237
Andernacher Straße,München,48.1856,11.5246,238
Anhalter Platz,München,48.1868,11.5622,239
Gärtnerstraße,München,48.1773,11.5363,240
Moosacher Straße,München,48.1872,11.5661,241
Olympia-Einkaufszentrum Süd,München,48.1822,11.5321,242
Dessauerstraße,München,48.1807,11.5317,243
Milbertshofener Platz,München,48.1845,11.5665,244
Schopenhauerstraße,München,48.1794,11.5639,245
Lüneburger Straße,München,48.1827,11.5631,246
Detmoldstraße,München,48.1924,11.5654,247
Schittgablerstraße,München,48.1914,11.549,248
Petuelring,München,48.1755,11.5666,249
Himmelschlüsselstraße,München,48.1955,11.5349,250
Lerchenauer See,München,48.1979,11.5356,251
Max-Wönner-Straße,München,48.1994,11.5357,252
Franz-Sperr-Weg,München,48.2039,11.5391,253
Gneisenaustraße,München,48.1786,11.5304,254
Paidarstraße,München,48.2148,11.5449,255
Hasenbergl (Rainfarnstr.),München,48.2136,11.5532,256
Stanigplatz,München,48.2166,11.5532,257
Olympiazentrum,München,48.1787,11.5567,258
Stösserstraße,München,48.2198,11.5571,259
Irisstraße,München,48.1967,11.5457,260
Robinienstraße,München,48.2006,11.5431,261
Goldlackplatz,München,48.2002,11.5502,262
Gundermannstraße,München,48.2042,11.5526,263
Hasenbergl Süd,München,48.2083,11.5525,264
Ittlingerstraße,München,48.2083,11.5557,265
Hasenberglstraße,München,48.2071,11.5603,266
Feldmochinger Anger,München,48.2091,11.5439,267
Olympia-Einkaufszentrum,München,48.182,11.5295,268
Ratkisstraße,München,48.2104,11.5561,269
Pulverturmstraße,München,48.2018,11.5535,270
Gröbenzeller Straße,München,48.1831,11.5079,271
Feldmoching Bahnhof Ost,München,48.2138,11.5432,272
Riesstraße Süd,München,48.1763,11.5363,273
Moosacher St.-Martins-Platz,München,48.1818,11.5173,274
Merseburger Straße,München,48.186,11.5211,275
Claudiusplatz,München,48.182,11.5254,276
Oberwiesenfeld,München,48.1862,11.5457,277
Ludwigsfeld (Campingplatz),München,48.1993,11.4971,278
Am Blütenanger,München,48.2018,11.5064,279
Pappelallee,München,48.2005,11.5127,280
Sonnentaustraße,München,48.1992,11.5185,281
Kuckucksblumenstraße,München,48.1989,11.5224,282
Frauenmantelanger,München,48.2094,11.5682,283
Pulverturm,München,48.1961,11.5649,284
Scheidplatz Süd,München,48.1703,11.5737,285
Olschewskibogen,München,48.2002,11.559,286
Scheidplatz,München,48.1715,11.5727,287
Augustin-Rösch-Straße,München,48.2013,11.5642,288
Röblingweg,München,48.205,11.5728,289
Feuchtwangerstraße,München,48.2078,11.5677,290
Trenkleweg,München,48.21,11.5717,291
Weitlstraße,München,48.2088,11.5632,292
Dientzenhoferstraße,München,48.2034,11.5772,293
Abtstraße,München,48.1842,11.5787,294
Weyprechtstraße,München,48.2047,11.5638,295
Rathenaustraße,München,48.2004,11.5735,296
Bonner Platz,München,48.1669,11.5785,297
Siedlung am Hart,München,48.2012,11.5769,298
Sudetendeutsche Straße,München,48.1962,11.5784,299
Euro-Industriepark West,München,48.1926,11.584,300
Oberhofer Platz,München,48.1876,11.5758,301
Milbertshofener Straße,München,48.1844,11.5754,302
Mildred-Scheel-Bogen,München,48.1753,11.5818,303
Rümannstraße,München,48.1756,11.5728,304
Freimann,München,48.1924,11.6145,305
Karl-Theodor-Straße,München,48.1668,11.574,306
Clemensstraße,München,48.1635,11.5746,307
Griegstraße,München,48.1817,11.5849,308
Klopstockstraße,München,48.1761,11.5793,309
Domagkstraße West,München,48.1843,11.5846,310
Ingolstädter Straße,München,48.1879,11.5844,311
Funkkaserne West,München,48.1877,11.5946,312
Max-Bill-Straße,München,48.1877,11.5946,313
Lilienthalallee Süd,München,48.1869,11.6025,314
Funkkaserne,München,48.1869,11.6025,315
Joseph-Dollinger-Bogen,München,48.1864,11.6066,316
Autobahn Nord,München,48.1864,11.6066,317
Kieferngarten,München,48.2027,11.6125,318
Heckscherstraße,München,48.1724,11.5824,319
Wilhelm-Hertz-Straße,München,48.176,11.5854,320
Parzivalplatz,München,48.1711,11.5859,321
Potsdamer Straße,München,48.1673,11.5862,322
Kölner Platz,München,48.1701,11.5774,323
Neuherbergstraße,München,48.2104,11.5871,324
Anton-Will-Straße,München,48.2057,11.5862,325
Heidemannstraße,München,48.201,11.5853,326
Gundelkoferstraße,München,48.1959,11.5843,327
Werner-Egk-Bogen,München,48.2015,11.598,328
Paracelsusstraße,München,48.2013,11.5895,329
Grusonstraße,München,48.2017,11.5934,330
Euro-Industriepark Nord,München,48.2009,11.6026,331
Paul-Hindemith-Allee,München,48.2005,11.6057,332
Bernsteinweg,München,48.2009,11.6118,333
Rockefellerstraße,München,48.2107,11.5753,334
Rose-Pichler-Weg,München,48.2108,11.5821,335
Alfred-Arndt-Straße,München,48.183,11.5967,336
Gertrud-Grunow-Straße,München,48.183,11.5967,337
Untere Länge,München,48.2058,11.5942,338
Kollwitzstraße,München,48.1982,11.5848,339
Pündterplatz,München,48.1626,11.5768,340
Keilberthstraße,München,48.2053,11.5996,341
Gustav-Mahler-Straße,München,48.2022,11.6031,342
Bismarckstraße,München,48.1625,11.5823,343
Zaunweg,München,48.1807,11.6013,344
Freiligrathstraße,München,48.1782,11.5852,345
Schwabinger Tor,München,48.1727,11.5864,346
Edmund-Rumpler-Straße,München,48.1951,11.6089,347
Lindberghstraße,München,48.1917,11.6058,348
Freimanner Hölzl,München,48.192,11.6013,349
Fröttmaning,München,48.2116,11.6166,350
Münchner Freiheit,München,48.1619,11.5863,351
Am Münchner Tor,München,48.1761,11.5883,352
Domagkstraße,München,48.1842,11.5904,353
Schwabing Nord,München,48.1875,11.5912,354
Dietlindenstraße,München,48.1666,11.5903,355
Osterwaldstraße,München,48.1634,11.5963,356
Herzogpark,München,48.1561,11.6071,357
Barlachstraße,München,48.1775,11.5756,358
Amsterdamer Straße,München,48.1696,11.5992,359
Nordfriedhof,München,48.1734,11.5974,360
Alte Heide,München,48.1795,11.6039,361
Studentenstadt,München,48.1833,11.608,362
Situlistraße,München,48.1901,11.6155,363
Floriansmühlstraße,München,48.1916,11.621,364
Emmerigweg,München,48.1954,11.6241,365
Josef-Wirth-Weg,München,48.199,11.6263,366
Großlappen,München,48.2044,11.6295,367
Wallnerstraße,München,48.2104,11.6333,368
Fröttmaning Auensiedlung,München,48.2146,11.6355,369
Bayerischer Rundfunk,München,48.1901,11.6274,370
Kufsteiner Platz,München,48.1502,11.6022,371
Redwitzstraße,München,48.1555,11.6086,372
Gustav-Freytag-Straße,München,48.1588,11.6119,373
Gellertstraße,München,48.1626,11.6152,374
Rümelinstraße,München,48.1664,11.6184,375
Poschingerstraße,München,48.1526,11.6059,376
Regina-Ullmann-Straße,München,48.1699,11.6351,377
Bichlhofweg,München,48.169,11.6434,378
Böhmerwaldplatz,München,48.1429,11.6154,379
Prinzregentenplatz,München,48.1393,11.607,380
Max-Weber-Platz,München,48.1357,11.5979,381
Max-Weber-Platz (Johannispl.),München,48.1344,11.5981,382
Lehel,München,48.1396,11.5886,383
Grimmeisenstraße,München,48.1652,11.6447,384
St. Emmeram,München,48.176,11.6305,385
Fritz-Meyer-Weg,München,48.1725,11.6366,386
Johanneskirchner Straße,München,48.1677,11.6436,387
Stegmühlstraße,München,48.1625,11.6451,388
Freischützstraße,München,48.1587,11.6421,389
Englschalkinger Straße,München,48.1567,11.6418,390
Memeler Straße,München,48.1532,11.6413,391
Zoppoter Straße,München,48.1506,11.6407,392
Posener Platz,München,48.1482,11.6405,393
Warthestraße,München,48.1463,11.6372,394
Vollmannstraße,München,48.1474,11.6283,395
Moselstraße,München,48.1418,11.6272,396
Vogelweideplatz,München,48.1373,11.6203,397
Steinhausen,München,48.1373,11.6203,398
Schwarzwaldstraße,München,48.1391,11.6288,399
Odinpark,München,48.158,11.6193,400
Daphnestraße,München,48.1481,11.6254,401
Priel,München,48.1609,11.6221,402
Effnerstraße,München,48.1631,11.624,403
Grüntal,München,48.1687,11.6215,404
Isarring,München,48.1538,11.6114,405
Mahirstraße,München,48.156,11.6139,406
Odinstraße,München,48.1586,11.6161,407
Wahnfriedallee,München,48.1619,11.6192,408
Lohengrinstraße,München,48.1642,11.6218,409
Bürgerpark Oberföhring,München,48.1662,11.6234,410
Oberföhring Post,München,48.172,11.6267,411
Bernheimerstraße,München,48.1736,11.6286,412
Muspillistraße,München,48.1698,11.6244,413
Sondermeierstraße,München,48.1908,11.6243,414
Altenheim Effnerstraße,München,48.159,11.6206,415
Prinz-Eugen-Park,München,48.1625,11.6292,416
Schlösselgarten,München,48.1587,11.629,417
Wilhelm-Dieß-Weg,München,48.1551,11.6373,418
Knappertsbuschstraße,München,48.1603,11.6404,419
Bruno-Walter-Ring,München,48.1627,11.6406,420
Taimerhofstraße,München,48.1668,11.6309,421
Pühnstraße,München,48.1467,11.632,422
Zamdorfer Straße,München,48.1382,11.6351,423
Friedrich-Eckart-Straße,München,48.1403,11.6363,424
Zamdorf Siedlung,München,48.14,11.6434,425
Süskindstraße,München,48.1399,11.6476,426
Kastenbauerstraße,München,48.1387,11.6395,427
Riedenburger Straße,München,48.136,11.6238,428
Kronstadter Straße,München,48.1387,11.6473,429
Zamilapark,München,48.1423,11.6496,430
Effnerplatz,München,48.1522,11.6136,431
Arabellastraße,München,48.1536,11.6178,432
Elektrastraße,München,48.1512,11.6266,433
Cosimabad,München,48.1535,11.6289,434
Denninger Straße,München,48.1485,11.6224,435
Arabellapark/Klinikum Bogenh.,München,48.1537,11.6232,436
Rappelhofstraße,München,48.1401,11.6482,437
Ruth-Schaumann-Straße,München,48.1422,11.6475,438
Einsteinstraße,München,48.1369,11.6149,439
Zaubzerstraße,München,48.1395,11.6148,440
Arabellapark,München,48.1533,11.6204,441
Arabellapark Nord,München,48.1537,11.6207,442
Richard-Strauss-Straße,München,48.1489,11.6163,443
Nettelbeckstraße,München,48.143,11.639,444
Hermann-Gmeiner-Weg,München,48.1464,11.64,445
Daglfing,München,48.149,11.6494,446
Marienburger Straße,München,48.1472,11.6437,447
Schichtlstraße,München,48.1471,11.6585,448
Trabrennbahn,München,48.1429,11.6613,449
Daglfing Bahnhof Ost,München,48.1489,11.6501,450
Daglfing Bahnhof West,München,48.1485,11.6485,451
Englschalking,München,48.1566,11.6484,452
Johanneskirchen,München,48.1694,11.6466,453
Johanneskirchen Bf West,München,48.1693,11.6446,454
Kunihohstraße,München,48.1498,11.6579,455
Westerlandanger,München,48.1622,11.6626,456
Lübecker Straße,München,48.167,11.6593,457
Burgauerstraße,München,48.1399,11.6551,458
Rennbahnstraße,München,48.1406,11.662,459
Milbertshofen,München,48.1812,11.5731,460
Bremer Straße,München,48.1892,11.5699,461
Frankfurter Ring,München,48.1875,11.5727,462
Korbinianplatz,München,48.1859,11.5728,463
Knorrstraße,München,48.1916,11.5724,464
Max-Diamand-Straße,München,48.1915,11.5675,465
Preußenstraße,München,48.1864,11.5577,466
BMW-FIZ,München,48.1935,11.5706,467
Am Hart Süd,München,48.195,11.5721,468
Oberhofer Weg,München,48.1923,11.5749,469
Anton-Ditt-Bogen,München,48.1913,11.5822,470
Am Hart,München,48.197,11.5718,471
Hufelandstraße,München,48.1926,11.5794,472
Lotte-Branz-Straße,München,48.1923,11.5903,473
Margot-Kalinke-Straße,München,48.1928,11.5961,474
Maria-Probst-Straße,München,48.1929,11.5993,475
Harthof,München,48.2049,11.5682,476
Helene-Wessel-Bogen,München,48.1963,11.5925,477
Dülferstraße,München,48.2128,11.5625,478
Aschenbrennerstraße,München,48.22,11.5607,479
Hasenbergl,München,48.2132,11.5563,480
Caracciolastraße,München,48.2072,11.5634,481
Riem,München,48.1434,11.679,482
Kirchtruderinger Straße,München,48.1263,11.674,483
Truchthari-Anger,München,48.1291,11.6765,484
Friedhof Riem,München,48.1326,11.6797,485
Schwankhardtweg,München,48.1351,11.6814,486
Martin-Empl-Ring,München,48.1407,11.6817,487
Heltauer Straße,München,48.1303,11.6579,488
Umschlagbahnhof,München,48.1444,11.7058,489
Hofbräuallee,München,48.1438,11.7009,490
Tierheim,München,48.1399,11.6692,491
Graf-Lehndorff-Straße,München,48.1405,11.6804,492
Am Messesee,München,48.1355,11.6902,493
Paul-Henri-Spaak-Straße,München,48.1385,11.6893,494
An der Point,München,48.1409,11.6854,495
Lehrer-Wirth-Straße,München,48.1295,11.6946,496
Helsinkistraße,München,48.1295,11.6894,497
Mutter-Teresa-Straße,München,48.1295,11.6997,498
Selma-Lagerlöf-Straße,München,48.1296,11.7027,499
Paul-Wassermann-Straße,München,48.1355,11.6855,500
August-Everding-Straße,München,48.1255,11.61,501
Ostbahnhof (Post),München,48.1288,11.6047,502
Ostbahnhof (Bildungszentrum),München,48.1274,11.6026,503
Baumkirchner Platz,München,48.1308,11.6319,504
Altöttinger Straße,München,48.1265,11.6218,505
Ostbahnhof Friedenstraße,München,48.127,11.6069,506
Grafinger Straße,München,48.1246,11.6193,507
Neumarkter Straße,München,48.1313,11.6281,508
Sankt Pius,München,48.1247,11.6132,509
Berg am Laim Bf Süd,München,48.1332,11.6326,510
Leuchtenbergring,München,48.1343,11.616,511
Ampfingstraße,München,48.1309,11.6157,512
Schlüsselbergstraße,München,48.1298,11.6228,513
Baumkirchner Straße,München,48.1283,11.6304,514
Mutschellestraße,München,48.1267,11.6382,515
St.-Veit-Straße,München,48.1218,11.6421,516
Sankt Michael,München,48.1239,11.6324,517
Schmuckerweg,München,48.1215,11.671,518
Bajuwarenstraße,München,48.124,11.6668,519
Berg am Laim,München,48.1361,11.6337,520
Halligenplatz,München,48.1192,11.6605,521
St.-Augustinus-Straße,München,48.1171,11.6566,522
Matterhornstraße,München,48.1147,11.6523,523
Peschelanger,München,48.1091,11.6547,524
Friedrich-Engels-Bogen,München,48.1058,11.659,525
Hugo-Lang-Bogen,München,48.1035,11.6591,526
Oskar-Maria-Graf-Ring,München,48.0988,11.6572,527
Trudering,München,48.1255,11.6633,528
Mühldorfstraße,München,48.1266,11.6135,529
"Truderinger Straße, Brücke",München,48.1277,11.6559,530
Halfinger Straße,München,48.126,11.6555,531
Truderinger Straße,München,48.126,11.6612,532
Nikolaus-Prugger-Weg,München,48.1194,11.6767,533
Friedenspromenade,München,48.1184,11.6834,534
Bahnstraße,München,48.1155,11.6952,535
Phantasiestraße,München,48.1132,11.7011,536
Von-Erckert-Straße,München,48.1114,11.7093,537
Florastraße,München,48.1174,11.6822,538
Edeltraudstraße,München,48.1146,11.6869,539
Turnerstraße,München,48.1117,11.6907,540
Birkhahnweg,München,48.1085,11.6944,541
Waldtruderinger Straße,München,48.1085,11.6944,542
Togostraße,München,48.1064,11.6971,543
Sperberstraße,München,48.1076,11.7,544
Drosselweg,München,48.1175,11.6908,545
Iltisstraße,München,48.1038,11.7041,546
Ursberger Straße,München,48.131,11.6451,547
Thomas-Hauser-Straße,München,48.1295,11.6507,548
Rofanstraße,München,48.1198,11.6502,549
Gnadenwaldplatz,München,48.118,11.6539,550
Mönchbergstraße,München,48.1158,11.6597,551
Simplonstraße,München,48.1146,11.6628,552
Himalajastraße,München,48.1131,11.6665,553
Batschkastraße,München,48.1145,11.6674,554
Spertentalstraße,München,48.1177,11.6698,555
Zauberwaldstraße,München,48.1138,11.6718,556
Markgrafenstraße,München,48.1112,11.6737,557
Vogesenstraße,München,48.1095,11.6712,558
Feldbergstraße,München,48.1084,11.6638,559
Am Hochacker,München,48.1056,11.6678,560
Hippelstraße,München,48.1021,11.6654,561
Lamprechtstraße,München,48.1014,11.6691,562
Friesplatz,München,48.1002,11.6725,563
Nauestraße,München,48.0988,11.6772,564
Alois-Hahn-Weg,München,48.1051,11.6618,565
Kafkastraße,München,48.0985,11.6488,566
Sudermannallee,München,48.0975,11.6527,567
Klinikum Neuperlach,München,48.0963,11.6554,568
Tribulaunstraße,München,48.0942,11.6538,569
Im Gefilde,München,48.0907,11.6617,570
Eulenspiegelstraße,München,48.088,11.6691,571
Waldheimplatz,München,48.0857,11.6747,572
Waldperlach,München,48.0821,11.6723,573
Salzmannstraße,München,48.0812,11.6768,574
Schatzbogen,München,48.1331,11.6603,575
Otto-Hahn-Ring,München,48.0922,11.649,576
Stahlgruberring,München,48.1345,11.6638,577
Karl-Schmid-Straße,München,48.1322,11.6691,578
Moosfeld Gewerbegebiet,München,48.1359,11.6679,579
Putzbrunner Straße,München,48.0964,11.6464,580
Ottilienstraße,München,48.1141,11.6774,581
Isengaustraße,München,48.0864,11.6618,582
Klara-Ziegler-Bogen,München,48.084,11.6613,583
Görzer Straße Schule,München,48.1046,11.6092,584
Sigmund-Riefler-Bogen,München,48.1367,11.7153,585
Am Hain,München,48.0832,11.6803,586
Wilhelm-Hale-Straße,München,48.1454,11.5201,587
Anni-Albers-Straße,München,48.1798,11.5892,588
Bergerwaldstraße,München,48.1111,11.6566,589
Gern,München,48.1635,11.529,590
Waldperlach (Süd),München,48.0813,11.6727,591
Wasserburger Landstraße,München,48.1213,11.665,592
Kulturzentrum Trudering,München,48.1197,11.6708,593
Jagdhornstraße,München,48.1123,11.7046,594
Bad-Schachener-Straße,München,48.1199,11.6242,595
Weidener Straße,München,48.0925,11.6281,596
Bayerwaldstraße,München,48.0885,11.6282,597
Perlach,München,48.0938,11.6306,598
Anzinger Straße,München,48.1208,11.6061,599
Nailastraße,München,48.0886,11.6336,600
Ramersdorf,München,48.1155,11.6133,601
Hechtseestraße,München,48.1157,11.6212,602
Krumbadstraße,München,48.1167,11.6251,603
Rudolf-Zorn-Straße,München,48.0909,11.6348,604
Heinrich-Wieland-Straße,München,48.117,11.64,605
Hermann-Pünder-Straße,München,48.0885,11.6358,606
Corinthstraße,München,48.1124,11.6495,607
Neuperlach Süd,München,48.0895,11.6444,608
Karl-Marx-Ring,München,48.1091,11.6499,609
Ludwig-Linsert-Straße,München,48.0863,11.6347,610
Ludwig-Erhard-Allee,München,48.0852,11.6394,611
Wilhelm-Hoegner-Straße,München,48.0989,11.6364,612
Thomas-Dehler-Straße,München,48.0973,11.6443,613
Jakob-Kaiser-Straße,München,48.1043,11.6403,614
Holzwiesenstraße,München,48.103,11.6366,615
Curd-Jürgens-Straße,München,48.0851,11.6429,616
Pfanzeltplatz,München,48.1001,11.6303,617
Therese-Giehse-Allee,München,48.0954,11.6433,618
Neuer Südfriedhof,München,48.1009,11.622,619
Hochäckerstraße,München,48.1011,11.6065,620
Ständlerstraße,München,48.1046,11.6052,621
Neuer Südfriedhof West,München,48.1012,11.6183,622
St.-Martin-Straße Ost,München,48.1192,11.6003,623
Thomasiusplatz,München,48.1158,11.6021,624
Aschheimer Straße,München,48.1208,11.6129,625
Ostpark Eislaufzentrum,München,48.1111,11.6321,626
Wolframstraße,München,48.0948,11.6359,627
Neuperlach Zentrum,München,48.101,11.6474,628
Diakon-Kerolt-Weg,München,48.1117,11.6177,629
Woferlstraße,München,48.1086,11.6188,630
Weddigenstraße,München,48.1038,11.6246,631
Schumacherring,München,48.0995,11.6408,632
Friedhof Perlach,München,48.098,11.6405,633
Berger-Kreuz-Straße,München,48.1129,11.6263,634
Hofangerstraße,München,48.1106,11.6274,635
Emdenstraße,München,48.107,11.6278,636
Georg-Brauchle-Haus,München,48.1103,11.6378,637
Quiddestraße,München,48.1091,11.6464,638
Nawiaskystraße,München,48.1068,11.6365,639
Staudingerstraße,München,48.1091,11.6392,640
Plettstraße,München,48.1091,11.6443,641
Ungsteiner Straße,München,48.115,11.5972,642
Fockensteinstraße,München,48.1097,11.5891,643
Valeppstraße,München,48.1109,11.5842,644
Adilostraße,München,48.1063,11.6212,645
Siegfried-Mollier-Straße,München,48.1066,11.6464,646
Michaelibad,München,48.1188,11.6306,647
Fasangartenstraße,München,48.0898,11.6112,648
Obernzeller Straße,München,48.0928,11.6098,649
Plassenburgstraße,München,48.0974,11.6078,650
Balanstraße,München,48.1086,11.6041,651
Klagenfurter Straße,München,48.1125,11.603,652
Mitterweg,München,48.1014,11.6104,653
Görzer Straße,München,48.0956,11.6094,654
Innsbrucker Ring,München,48.1204,11.6191,655
Landrichterstraße,München,48.0887,11.6075,656
Cincinnatistraße,München,48.0927,11.6017,657
Langbürgener Straße,München,48.1106,11.6127,658
Karl-Preis-Platz,München,48.1185,11.6095,659
St.-Martin-Straße,München,48.1187,11.5965,660
Ganghoferbrücke,München,48.1279,11.5391,661
Herzog-Ernst-Platz,München,48.1253,11.5407,662
Sendlinger Kirche,München,48.122,11.5411,663
Margaretenplatz,München,48.12,11.5407,664
Ostfriedhof,München,48.1191,11.5836,665
St.-Martins-Platz,München,48.1172,11.5884,666
Werinherstraße,München,48.1149,11.5925,667
Chiemgaustraße,München,48.1067,11.5963,668
Schwanseestraße,München,48.1029,11.5971,669
Giesing,München,48.1108,11.5946,670
Traunsteiner Straße,München,48.1047,11.5873,671
Pöllatstraße,München,48.1052,11.5907,672
Tegernseer Landstraße,München,48.1117,11.5762,673
Kurzstraße,München,48.1046,11.5698,674
Südtiroler Straße,München,48.1008,11.5667,675
Tiroler Platz,München,48.0962,11.5637,676
Fasangarten,München,48.0934,11.604,677
Authariplatz,München,48.092,11.5626,678
Theodolindenplatz,München,48.0903,11.5569,679
Klinikum Harlaching,München,48.0869,11.5549,680
Menterschwaige,München,48.0802,11.5518,681
Großhesseloher Brücke,München,48.0767,11.5502,682
Schilcherweg,München,48.0713,11.5474,683
Senserstraße,München,48.123,11.5486,684
Am Harras,München,48.1165,11.5401,685
Harras,München,48.1169,11.5362,686
Aberlestraße,München,48.1223,11.5445,687
Lagerhausstraße,München,48.1204,11.5553,688
Großmarkthalle,München,48.1197,11.5523,689
Gotzinger Platz,München,48.1177,11.5503,690
Maria-Einsiedel-Straße,München,48.0974,11.5444,691
Implerstraße,München,48.1193,11.5483,692
Zentralländstraße,München,48.1005,11.5482,693
Bad Maria Einsiedel,München,48.0968,11.5471,694
Floßlände,München,48.0945,11.5456,695
Campingplatz Thalkirchen,München,48.0916,11.544,696
Hinterbrühl,München,48.0871,11.5412,697
Spixstraße,München,48.111,11.5795,698
Schäftlarnstraße,München,48.1123,11.5536,699
Heckenstallerstraße,München,48.1112,11.5396,700
Heimeranplatz,München,48.1334,11.5335,701
Neuhofen,München,48.1073,11.54,702
Steinerstraße,München,48.1044,11.5403,703
Rupert-Mayer-Straße,München,48.0964,11.541,704
Krankenhaus Martha Maria,München,48.0862,11.5341,705
Flößergasse,München,48.1034,11.5381,706
Tölzer Straße,München,48.1004,11.5382,707
Heimeranplatz Süd,München,48.1322,11.5294,708
Untersbergstraße,München,48.1128,11.5871,709
Wolfratshauser Straße,München,48.0899,11.5375,710
Neunkirchner Straße,München,48.0928,11.5401,711
Jakob-Gelb-Platz,München,48.1136,11.5719,712
Hans-Mielich-Straße,München,48.1144,11.5701,713
Tierpark (Alemannenstr.),München,48.1006,11.5587,714
Wilhelm-Kuhnert-Straße,München,48.1037,11.5616,715
Lebscheestraße,München,48.1076,11.5648,716
Ludmillastraße,München,48.1102,11.5672,717
Winterstraße,München,48.1156,11.5729,718
Silberhornstraße,München,48.1152,11.5795,719
Theodolindenstraße,München,48.0885,11.5596,720
Autharistraße,München,48.0904,11.5638,721
Griechenstraße,München,48.0931,11.5698,722
Säbener Straße,München,48.0948,11.5739,723
Hollerbusch,München,48.0955,11.5743,724
Stadelheimer Straße,München,48.0999,11.5862,725
Frasdorfer Straße,München,48.1012,11.591,726
Kiefernstraße,München,48.0876,11.5994,727
Candidplatz,München,48.1115,11.5698,728
Minnewitstraße,München,48.0911,11.5972,729
Lincolnstraße,München,48.0942,11.5905,730
Stettnerstraße,München,48.097,11.5869,731
Soyerhofstraße,München,48.1016,11.582,732
Leifstraße,München,48.0914,11.5938,733
Silberhorn-/Ichostraße,München,48.1159,11.5797,734
Waltramstraße,München,48.1068,11.5805,735
Peter-Auzinger-Straße,München,48.0987,11.5827,736
Wettersteinplatz,München,48.1092,11.5747,737
Gerhardstraße,München,48.1131,11.5652,738
St.-Quirin-Platz,München,48.104,11.5818,739
Hauzenberger Straße,München,48.1375,11.5221,740
Lautensackstraße,München,48.1401,11.5184,741
Schäufeleinstraße,München,48.1416,11.5122,742
Agnes-Bernauer-Straße,München,48.1393,11.5111,743
Elsenheimerstraße,München,48.1361,11.524,744
Am Lokschuppen,München,48.1407,11.5242,745
Fachnerstraße,München,48.1297,11.5168,746
Mangfallplatz,München,48.0979,11.581,747
Mangfallplatz Süd,München,48.0965,11.5777,748
Säulingstraße,München,48.1274,11.512,749
Stegener Weg,München,48.1259,11.5083,750
Hans-Thonauer-Straße,München,48.1349,11.5172,751
Veldener Straße,München,48.1451,11.4825,752
Siglstraße,München,48.135,11.5136,753
Hansastraße,München,48.131,11.5311,754
Hansapark,München,48.1283,11.5345,755
Josephsburg,München,48.127,11.6344,756
Garmischer Straße,München,48.1301,11.5285,757
Siegenburger Straße,München,48.1263,11.522,758
Hinterbärenbadstraße,München,48.1208,11.5183,759
Kreillerstraße,München,48.1259,11.6447,760
Baumgartnerstraße,München,48.126,11.536,761
Fuggerstraße,München,48.124,11.5346,762
Ortlerstraße,München,48.1204,11.5347,763
Moosfeld,München,48.1305,11.6707,764
Messestadt West,München,48.1334,11.6898,765
Messestadt Süd,München,48.1284,11.6911,766
Messestadt Ost,München,48.1334,11.7036,767
Mittersendling,München,48.1087,11.5363,768
Baierbrunner Straße,München,48.0934,11.5304,769
Hofmannstraße,München,48.0998,11.5291,770
Ratzingerplatz,München,48.0994,11.5238,771
Ringelnatzweg,München,48.0754,11.5232,772
Drachenseestraße,München,48.1168,11.5316,773
Fernpaßstraße,München,48.115,11.5228,774
Luise-Kiesselbach-Platz,München,48.1133,11.517,775
Ettalstraße,München,48.1132,11.5138,776
Werdenfelsstraße,München,48.1125,11.5078,777
Siemenswerke,München,48.0955,11.5316,778
Waldfriedhof,München,48.1121,11.5023,779
Waldfriedhof (Wendeschleife),München,48.1123,11.503,780
Grünstraße,München,48.11,11.5262,781
Pilsenseestraße,München,48.1093,11.5201,782
Höglwörther Straße,München,48.1068,11.5224,783
Murnauer Straße,München,48.1019,11.5242,784
Diefenbachstraße,München,48.0805,11.5235,785
Aichacher Straße,München,48.1048,11.5181,786
Solln,München,48.0791,11.5275,787
Adunistraße,München,48.1095,11.5343,788
Schneemannstraße,München,48.1058,11.5326,789
Zielstattstraße,München,48.1026,11.53,790
Geisenhausenerstraße,München,48.0988,11.5186,791
Sollner Straße,München,48.0769,11.5252,792
Melchiorstraße,München,48.0723,11.5198,793
Gmunder Straße,München,48.0957,11.5276,794
Friedastraße,München,48.0813,11.529,795
Solln Bf Wendeschleife,München,48.0814,11.5275,796
Partnachplatz,München,48.1165,11.5266,797
Josephinenstraße,München,48.0824,11.5371,798
Weltistraße,München,48.0875,11.5072,799
Carola-Neher-Straße,München,48.0906,11.5329,800
Fertigstraße,München,48.0889,11.5091,801
Johann-Clanze-Straße,München,48.1128,11.5338,802
Friedrich-Hebbel-Straße,München,48.1128,11.526,803
Kistlerhofstraße,München,48.0952,11.5234,804
Leutstettener Straße,München,48.0934,11.5226,805
Siemensallee,München,48.0905,11.5211,806
Westpark,München,48.1179,11.5171,807
Münsinger Straße,München,48.0905,11.5177,808
Spindlerplatz,München,48.09,11.5142,809
Sentilostraße,München,48.0879,11.5149,810
Bastian-Schmid-Platz,München,48.0851,11.5133,811
Marienstern,München,48.0877,11.5197,812
Hofbrunnstraße,München,48.0837,11.5172,813
Glötzleweg,München,48.0862,11.5101,814
Kandinskystraße,München,48.0856,11.5064,815
Wilhelm-Busch-Straße,München,48.0822,11.5061,816
Munckerstraße,München,48.0895,11.5029,817
Gulbranssonstraße,München,48.0824,11.5037,818
Parkstadt Solln,München,48.0798,11.5036,819
Allescherstraße,München,48.0825,11.5199,820
Stäblistraße,München,48.0866,11.503,821
Nesselwanger Straße,München,48.0847,11.4908,822
Forstenried,München,48.0848,11.4947,823
Eberlestraße,München,48.0784,11.508,824
Bleibtreustraße,München,48.0762,11.5143,825
Stridbeckstraße,München,48.0764,11.5195,826
Gilgstraße,München,48.0818,11.5089,827
Geretsrieder Straße,München,48.1,11.5331,828
Waldfriedhof Solln,München,48.0691,11.5171,829
Whistlerweg,München,48.0719,11.5239,830
Aurikelstraße,München,48.1082,11.491,831
Plattlinger Straße,München,48.0788,11.5127,832
Lorettoplatz,München,48.1036,11.4887,833
Staffelseestraße,München,48.0922,11.5064,834
Züricher Straße,München,48.0943,11.504,835
Limmatstraße,München,48.0947,11.5011,836
Hatzelweg,München,48.0864,11.4957,837
Kriegelsteinerstraße,München,48.0899,11.4969,838
Bad Forstenried,München,48.087,11.4994,839
Neurieder Straße,München,48.0868,11.4854,840
Forstenrieder Park,München,48.0774,11.4885,841
Mindelheimer Straße,München,48.0801,11.4922,842
Spielmannsauer Straße,München,48.0823,11.494,843
Marchioninistraße,München,48.1136,11.4768,844
Max-Lebsche-Platz,München,48.1086,11.4754,845
Brudermühlstraße,München,48.1122,11.5487,846
Sylvensteinstraße,München,48.113,11.5395,847
Zöllerstraße,München,48.1052,11.4752,848
Ehrenmal,München,48.0993,11.479,849
Tischlerstraße,München,48.0951,11.4805,850
Bellinzonastraße,München,48.0934,11.4812,851
Forst-Kasten-Allee,München,48.0947,11.4765,852
Thalkirchen (Tierpark),München,48.1014,11.5466,853
Maxhofstraße,München,48.0882,11.4792,854
Gautinger Straße,München,48.0849,11.4785,855
Vinzenz-Schüpfer-Straße,München,48.0835,11.4838,856
Allgäuer Straße,München,48.082,11.4856,857
Kemptener Straße,München,48.0788,11.4842,858
Obersendling,München,48.0984,11.538,859
Tessiner Straße,München,48.0907,11.4751,860
Appenzeller Straße,München,48.093,11.4754,861
Aidenbachstraße,München,48.0979,11.5241,862
Waldfriedhof Haupteingang,München,48.1077,11.5022,863
Drygalski-Allee,München,48.0982,11.5084,864
Südpark,München,48.1009,11.5111,865
Machtlfinger Straße,München,48.0981,11.5135,866
Klinikum Großhadern Ost,München,48.1112,11.4739,867
Klinikum Großhadern Nord,München,48.1123,11.4668,868
Klinikum West,München,48.1085,11.4666,869
Forstenrieder Allee,München,48.0947,11.4985,870
Basler Straße,München,48.0905,11.4903,871
Fürstenried West,München,48.0886,11.4804,872
Kornwegerstraße,München,48.1122,11.4948,873
Holzapfelkreuth,München,48.1163,11.5024,874
Andreas-Vöst-Straße,München,48.1217,11.5026,875
Ammerseestraße,München,48.126,11.5028,876
Aindorferstraße,München,48.1312,11.5028,877
Haderner Stern,München,48.1184,11.4901,878
Gräfelfinger Straße,München,48.1173,11.4951,879
Kurparkstraße,München,48.1195,11.4962,880
Stiftsbogen,München,48.1206,11.4916,881
Wolkerweg,München,48.1206,11.4872,882
Großhadern,München,48.1155,11.4772,883
Großhaderner Straße,München,48.1195,11.4811,884
Gelbhofstraße,München,48.1221,11.4757,885
Am Ährenfeld,München,48.12,11.4783,886
Am Hedernfeld,München,48.1199,11.4691,887
Haderunstraße,München,48.1222,11.4789,888
Am Hedernfeld Nord,München,48.1217,11.4728,889
Krokusstraße,München,48.1258,11.4793,890
Butenandstraße,München,48.1134,11.4643,891
Klinikum Großhadern,München,48.1089,11.4738,892
Hanna-Kirchner-Weg,München,48.1177,11.4691,893
Terofalstraße,München,48.1256,11.4754,894
Flemischweg,München,48.128,11.4704,895
Wastl-Witt-Straße,München,48.1267,11.4697,896
Wildanger,München,48.1195,11.473,897
Drozzaweg,München,48.1208,11.4756,898
Senftenauerstraße,München,48.1257,11.4978,899
Gondrellplatz,München,48.1246,11.49,900
Saalburgstraße,München,48.1137,11.4875,901
Platanenstraße,München,48.1146,11.4833,902
Zinckgrafstraße,München,48.115,11.4715,903
Waldhüterstraße,München,48.1147,11.4672,904
Fürstenrieder Straße,München,48.1397,11.5031,905
Agnes-Bernauer-Platz,München,48.1399,11.496,906
Pörtschacher Straße,München,48.1443,11.4903,907
Willibaldplatz,München,48.1409,11.4888,908
Lohensteinstraße,München,48.1416,11.4816,909
Westbad,München,48.1424,11.4748,910
Am Knie,München,48.1455,11.4717,911
Offenbachstraße,München,48.1462,11.4653,912
Pasinger Marienplatz,München,48.1463,11.4592,913
Engelbertstraße,München,48.1437,11.458,914
Rathaus Pasing,München,48.1467,11.4613,915
Planegger Straße,München,48.1401,11.457,916
Weinbergerstraße,München,48.1404,11.4618,917
Siegmannstraße,München,48.1374,11.4611,918
Kraillinger Weg,München,48.1383,11.4549,919
Siedlung am Haidelweg,München,48.1359,11.4533,920
Seeholzenweg,München,48.1324,11.4688,921
Perlschneiderstraße,München,48.1355,11.4634,922
Blumenau,München,48.1283,11.4745,923
Silberdistelstraße,München,48.1294,11.4795,924
Willibaldstraße,München,48.1301,11.483,925
Sulzbeckstraße,München,48.1336,11.4836,926
Fischer-von-Erlach-Straße,München,48.1374,11.4801,927
Mitterfeldstraße,München,48.1368,11.4852,928
Stroblstraße,München,48.1361,11.4935,929
Pronnerplatz,München,48.1437,11.4969,930
Hönigschmidplatz,München,48.1299,11.4896,931
Menaristraße,München,48.1286,11.4942,932
Guido-Schneble-Straße,München,48.1316,11.4983,933
Scapinellistraße,München,48.1482,11.4541,934
Krankenhaus Pasing,München,48.1456,11.4531,935
Avenariusplatz,München,48.1424,11.4507,936
Wehnerstraße,München,48.1405,11.4481,937
Peslmüllerstraße,München,48.1413,11.4461,938
Dachstraße,München,48.1379,11.4432,939
Maria-Eich-Str.,München,48.1369,11.4414,940
Varnhagenstraße,München,48.1506,11.449,941
Volmstraße,München,48.1508,11.4542,942
Leienfelsstraße,München,48.1546,11.4278,943
Betschartstraße,München,48.146,11.4465,944
Ravensburger Ring,München,48.1503,11.4368,945
Heimburgstraße,München,48.148,11.4447,946
Mainaustraße,München,48.1493,11.4338,947
Sipplinger Straße,München,48.1493,11.431,948
Wertheimer Straße,München,48.1485,11.4257,949
Anton-Böck-Straße,München,48.1351,11.4113,950
Aubing,München,48.1538,11.4138,951
Ubostraße,München,48.1567,11.416,952
Altenburgstraße,München,48.1474,11.4214,953
Mariabrunner Straße,München,48.1606,11.4203,954
Hohensteinstraße,München,48.1459,11.4222,955
Kronwinkler Straße,München,48.1614,11.4233,956
Veldensteinstraße,München,48.1405,11.4251,957
Jaspersallee,München,48.1637,11.4354,958
Wiesentfelser Straße,München,48.1465,11.4144,959
Papinstraße,München,48.1393,11.4173,960
Westkreuz,München,48.1493,11.441,961
Ellis-Kaut-Straße,München,48.1455,11.4104,962
Riesenburgstraße,München,48.1486,11.4137,963
Kunreuthstraße,München,48.1505,11.4131,964
Neuaubing West,München,48.1525,11.4098,965
Benedikterstraße,München,48.1404,11.4687,966
Plankenfelser Straße,München,48.1497,11.4206,967
Neuaubing,München,48.1428,11.4238,968
Limesstraße,München,48.154,11.4185,969
Germeringer Weg,München,48.1583,11.4133,970
Bergsonstraße,München,48.16,11.415,971
Elisabeth-Jost-Straße,München,48.1558,11.4204,972
Gilchinger Straße,München,48.1642,11.4133,973
Überlinger Weg,München,48.1444,11.4351,974
Allinger Straße,München,48.1676,11.411,975
Joseph-Suder-Bogen,München,48.1565,11.4229,976
Freiham,München,48.1411,11.4116,977
Ilse-Fehling-Straße,München,48.1573,11.4263,978
Asmarstraße,München,48.1724,11.407,979
Staufener Straße,München,48.1578,11.43,980
Sumpfmeisenweg,München,48.1797,11.3984,981
Englburgstraße,München,48.1567,11.4352,982
Ziegeleistraße,München,48.1763,11.4035,983
Hellensteinstraße,München,48.1531,11.4357,984
Federseestraße,München,48.1753,11.3968,985
Tettnanger Straße,München,48.1521,11.4406,986
Erlbachstraße,München,48.1747,11.3947,987
Hörweg,München,48.152,11.4065,988
Pirolstraße,München,48.1798,11.3957,989
Otto-Meitinger-Straße,München,48.1493,11.4049,990
Krähenweg,München,48.1813,11.3912,991
Helmut-Schmidt-Allee,München,48.1425,11.4079,992
Eichelhäherstraße,München,48.1739,11.3906,993
Bildungscampus Freiham,München,48.1412,11.4031,994
Clarita-Bernhard-Straße,München,48.1382,11.4091,995
Ehrenbürgstraße,München,48.1415,11.4144,996
Hans-Steinkohl-Straße,München,48.1349,11.411,997
Freiham Möbel Höffner,München,48.1342,11.413,998
Karwinskistraße West,München,48.1681,11.4645,999
Benderstraße,München,48.172,11.4646,1000
Im Wismat,München,48.1736,11.4669,1001
Thuillestraße,München,48.1737,11.4695,1002
Bauseweinallee,München,48.1748,11.4728,1003
Stücklenstraße,München,48.1717,11.4741,1004
Heerstraße West,München,48.1695,11.4745,1005
Karwinskistraße Ost,München,48.1681,11.4754,1006
Langwieder See,München,48.1985,11.4132,1007
Campingplatz Langwieder See,München,48.1985,11.4111,1008
Pasing Bf Nord,München,48.1505,11.4623,1009
Orthstraße,München,48.1541,11.4668,1010
Marsopstraße,München,48.1572,11.467,1011
Menterstraße,München,48.1612,11.4671,1012
Langwied,München,48.163,11.4323,1013
Marschnerstraße,München,48.1532,11.456,1014
Rubensstraße,München,48.1574,11.4502,1015
Polkostraße,München,48.1604,11.446,1016
Alte Allee,München,48.1638,11.4431,1017
Friedhof Obermenzing,München,48.1644,11.4481,1018
Bertha-von-Suttner-Weg,München,48.1651,11.453,1019
Blutenburg,München,48.1652,11.4568,1020
Wöhlerstraße,München,48.1648,11.4631,1021
Dorfstraße,München,48.1648,11.4673,1022
Lochhausen,München,48.1774,11.4075,1023
Sarasatestraße,München,48.1646,11.4733,1024
Schloss Blutenburg,München,48.1643,11.4547,1025
Rüttenauerplatz,München,48.1627,11.4485,1026
Von-Kahr-Straße,München,48.1772,11.463,1027
Campingplatz Obermenzing,München,48.175,11.4467,1028
Lochhausener Straße,München,48.1695,11.457,1029
Steirerstraße,München,48.1728,11.4602,1030
Friedhof Untermenzing,München,48.1779,11.4617,1031
Pfarrer-Grimm-Straße,München,48.1795,11.4613,1032
Willi-Wien-Straße,München,48.1775,11.4681,1033
Esmarchstraße,München,48.1855,11.46,1034
Vesaliusstraße,München,48.1887,11.4607,1035
St.-Johann-Straße,München,48.1918,11.4664,1036
Höcherstraße,München,48.194,11.4618,1037
Franz-Nißl-Straße,München,48.1961,11.4614,1038
Kleselstraße,München,48.199,11.458,1039
Otto-Warburg-Straße,München,48.2061,11.4578,1040
Servetstraße,München,48.1947,11.4565,1041
Gerlachweg,München,48.18,11.4459,1042
Hauseggerstraße,München,48.192,11.4516,1043
Riederstraße,München,48.1862,11.4455,1044
Brückestraße,München,48.1821,11.4445,1045
Pasinger Heuweg,München,48.1832,11.4469,1046
Augustenfelder Straße,München,48.2006,11.4444,1047
Karl-Hänel-Straße,München,48.2002,11.4478,1048
Pregerstraße,München,48.2012,11.453,1049
Auenbruggerstraße,München,48.1812,11.4499,1050
Eversbuschstraße,München,48.1913,11.4595,1051
Georg-Reismüller-Straße,München,48.1943,11.464,1052
Nusselstraße,München,48.1501,11.4691,1053
Sibeliusstraße,München,48.1547,11.4705,1054
Schmaedelstraße,München,48.1507,11.475,1055
Peter-Anders-Straße,München,48.1531,11.4765,1056
Paul-Gerhardt-Allee,München,48.1564,11.4786,1057
Am Durchblick,München,48.161,11.4782,1058
Josef-Lang-Straße,München,48.1501,11.472,1059
Goteboldstraße,München,48.1772,11.443,1060
Paulaner Brauerei,München,48.1764,11.4368,1061
Langwied Ortsmitte,München,48.1812,11.4242,1062
Osterangerstraße,München,48.1796,11.4181,1063
Eschenrieder Straße,München,48.1797,11.4078,1064
Krauss-Maffei-Straße Ost,München,48.1938,11.4731,1065
Krauss-Maffei-Straße,München,48.1936,11.4708,1066
Erna-Eckstein-Straße,München,48.1502,11.4766,1067
Berduxstraße,München,48.1516,11.4798,1068
Obermenzing,München,48.1642,11.4786,1069
Frauendorferstraße,München,48.1638,11.4762,1070
Freseniusstraße,München,48.164,11.4812,1071
Fasanenstraße,München,48.1672,11.4874,1072
Reginbaldstraße,München,48.169,11.4847,1073
Heerstraße,München,48.1708,11.4819,1074
Allach,München,48.1898,11.467,1075
Allach Bahnhof Ost,München,48.1928,11.4685,1076
Kunstmannstraße,München,48.1739,11.4772,1077
Finsterwalderstraße,München,48.176,11.4746,1078
Karl-von-Roth-Straße,München,48.1794,11.4747,1079
Krautheimstraße,München,48.1829,11.4726,1080
Von-Reuter-Straße,München,48.1816,11.4753,1081
Penzoltstraße,München,48.1803,11.4829,1082
Korbinian-Beer-Straße,München,48.1835,11.4785,1083
Gruithuisenstraße,München,48.1834,11.484,1084
Manzostraße,München,48.184,11.489,1085
Untermenzing,München,48.1778,11.4743,1086
Zaunerstraße,München,48.1781,11.4807,1087
Waldhornstraße,München,48.1795,11.4897,1088
Untermenzinger Straße,München,48.1781,11.4948,1089
Lauinger Straße,München,48.1792,11.4961,1090
Dillinger Straße,München,48.182,11.4957,1091
Ohlauer Straße,München,48.1836,11.501,1092
Donauwörther Straße,München,48.1841,11.4964,1093
Hortigstraße,München,48.1871,11.4721,1094
Rueßstraße,München,48.1848,11.4725,1095
Angerlohstraße,München,48.1891,11.4725,1096
Tubeufstraße,München,48.1915,11.4735,1097
Vogelloh,München,48.2135,11.4676,1098
Allacher Forstweg,München,48.2108,11.4815,1099
Eininger Straße,München,48.186,11.5041,1100
Max-Born-Straße,München,48.1918,11.5022,1101
Ferchenbachstraße,München,48.2025,11.4943,1102
Rangierbahnhof,München,48.1945,11.4956,1103
Haylerstraße,München,48.1883,11.5033,1104
Kristallstraße,München,48.2128,11.4846,1105
Siedlung Ludwigsfeld,München,48.2173,11.4894,1106
Achatstraße,München,48.2167,11.4891,1107
Feldmochinger See,München,48.2183,11.518,1108
Opalstraße,München,48.2161,11.4866,1109
"MAN, Siedlung",München,48.2183,11.4829,1110
Karlsfelder Straße,München,48.2163,11.4808,1111
Kaiserhölzlstraße,München,48.2163,11.5086,1112
Schwarzhölzlstraße,München,48.2181,11.5249,1113
Grashofstraße,München,48.2172,11.529,1114
Faganastraße,München,48.2076,11.5334,1115
Bergwachtstraße,München,48.2111,11.5307,1116
Josef-Frankl-Straße,München,48.2152,11.5307,1117
Lerchenstraße,München,48.2146,11.5349,1118
Hauptbahnhof Süd,München,48.1393,11.5592,1119
Hauptbahnhof Nord,München,48.1412,11.5608,1120
MVG-Museum,München,48.1036,11.6016,1121
Olympiapark Parkharfe,München,48.1707,11.5416,1122
Toni-Merkens-Weg,München,48.1707,11.5416,1123
Spiridon-Louis-Ring,München,48.1679,11.5547,1124
Olympiaberg,München,48.1692,11.5492,1125
Tollwood,München,48.1692,11.5492,1126
Dostlerstraße,München,48.1772,11.5599,1127
Riesenfeldstraße / Tor 5,München,48.1822,11.5632,1128
IT-Zentrum,München,48.1893,11.5699,1129
Anton-Ditt-Bogen,München,48.1907,11.5814,1130
Heidemannstr. 164,München,48.2001,11.602,1131
Freimann (Auslieferung),München,48.1937,11.6067,1132
Moosacher Str. 51,München,48.1855,11.5573,1133
Lauchstädter Straße,München,48.189,11.5739,1134
Taunusstraße,München,48.1889,11.5784,1135
BTZ Lemgostraße,München,48.1921,11.5545,1136
Siglstraße Nord,München,48.1388,11.5137,1137
